code insee,ville,code postal,latitude,longitude,pays
10227,MAROLLES SOUS LIGNIERES,10130,48.0520003827, 3.93246550297,FR
10166,LES GRANDES CHAPELLES,10170,48.4916267047, 3.93350100384,FR
10232,MERREY SUR ARCE,10110,48.1160220302, 4.43093259336,FR
10182,JUVANCOURT,10310,48.1567685845, 4.79470021531,FR
10190,LAUBRESSEL,10270,48.2596266125, 4.24959642717,FR
10173,ISLE AUMONT,10800,48.2055801821, 4.1125140322,FR
10196,LIGNIERES,10130,48.0520003827, 3.93246550297,FR
10230,MERGEY,10600,48.3767482025, 3.98875459714,FR
10212,MACHY,10320,48.1632184055, 4.02059815423,FR
11111,CRUSCADES,11200,43.1662010238, 2.78892059953,FR
11112,CUBIERES SUR CINOBLE,11190,42.9166610889, 2.34707884311,FR
11113,CUCUGNAN,11350,42.8796650781, 2.66522654176,FR
11121,DONAZAC,11240,43.1188469018, 2.06671991119,FR
11133,FAJAC EN VAL,11220,43.0809470716, 2.59145854442,FR
11142,FESTES ET ST ANDRE,11300,43.0486403902, 2.18021479284,FR
11147,FONTANES DE SAULT,11140,42.7657925357, 2.16672255446,FR
11148,FONTCOUVERTE,11700,43.2164263433, 2.63518086038,FR
11152,FONTJONCOUSE,11360,42.9848553966, 2.7967793394,FR
11160,GALINAGUES,11140,42.7657925357, 2.16672255446,FR
11162,GENERVILLE,11270,43.1822151687, 1.96656505821,FR
11164,GINESTAS,11120,43.2793720392, 2.88392060651,FR
11169,GREFFEIL,11250,43.0946347739, 2.34321262347,FR
11170,GRUISSAN,11430,43.1033671547, 3.08203415117,FR
11172,HOMPS,11200,43.1662010238, 2.78892059953,FR
11175,ISSEL,11400,43.3333084343, 1.97819883163,FR
11177,JOUCOU,11140,42.7657925357, 2.16672255446,FR
11180,LABASTIDE ESPARBAIRENQUE,11380,43.3945963595, 2.38722889335,FR
11182,LACOMBE,11310,43.3722409402, 2.17410983728,FR
11185,LAGRASSE,11220,43.0809470716, 2.59145854442,FR
11189,LAPRADE,11390,43.3925599417, 2.2792029886,FR
11190,LA REDORTE,11700,43.2164263433, 2.63518086038,FR
11192,LASBORDES,11400,43.3333084343, 1.97819883163,FR
11196,LAURAC,11270,43.1822151687, 1.96656505821,FR
11202,LEUCATE,11370,42.8990754596, 3.02622378383,FR
11212,MAILHAC,11120,43.2793720392, 2.88392060651,FR
11226,MAYREVILLE,11420,43.2067830751, 1.79388571157,FR
11230,MERIAL,11140,42.7657925357, 2.16672255446,FR
11241,MONTBRUN DES CORBIERES,11700,43.2164263433, 2.63518086038,FR
11242,MONTCLAR,11250,43.0946347739, 2.34321262347,FR
11246,MONTGRADAIL,11240,43.1188469018, 2.06671991119,FR
11247,MONTHAUT,11240,43.1188469018, 2.06671991119,FR
11251,MONTLAUR,11220,43.0809470716, 2.59145854442,FR
11255,MONTREDON DES CORBIERES,11100,43.1614428329, 3.00768633064,FR
11260,MOUTHOUMET,11330,42.9592043622, 2.54502712372,FR
11264,NEVIAN,11200,43.1662010238, 2.78892059953,FR
11270,PADERN,11350,42.8796650781, 2.66522654176,FR
11279,PENNAUTIER,11610,43.2600787186, 2.30202617457,FR
11283,PEYREFITTE SUR L HERS,11420,43.2067830751, 1.79388571157,FR
11285,PEYRIAC DE MER,11440,43.0899544333, 2.94880546616,FR
11288,PEZENS,11170,43.2815047945, 2.19442534937,FR
11293,POMAS,11250,43.0946347739, 2.34321262347,FR
11297,PRADELLES CABARDES,11380,43.3945963595, 2.38722889335,FR
11298,PRADELLES EN VAL,11220,43.0809470716, 2.59145854442,FR
11299,PREIXAN,11250,43.0946347739, 2.34321262347,FR
11314,RIEUX EN VAL,11220,43.0809470716, 2.59145854442,FR
11318,ROQUECOURBE MINERVOIS,11700,43.2164263433, 2.63518086038,FR
11320,ROQUEFEUIL,11340,42.8370630944, 1.98179772961,FR
11321,ROQUEFORT DE SAULT,11140,42.7657925357, 2.16672255446,FR
11335,STE COLOMBE SUR GUETTE,11140,42.7657925357, 2.16672255446,FR
11338,ST COUAT DU RAZES,11300,43.0486403902, 2.18021479284,FR
11351,ST LAURENT DE LA CABRERISSE,11220,43.0809470716, 2.59145854442,FR
11361,ST PAPOUL,11400,43.3333084343, 1.97819883163,FR
11367,SAISSAC,11310,43.3722409402, 2.17410983728,FR
11385,SOUPEX,11320,43.3837467528, 1.85528043392,FR
11397,TREBES,11800,43.2182954878, 2.49172141797,FR
11400,TREZIERS,11230,42.9737220665, 2.02689573941,FR
11412,VILLARDEBELLE,11580,43.0019735527, 2.32970366921,FR
11417,VILLARZEL DU RAZES,11300,43.0486403902, 2.18021479284,FR
11429,VILLEMOUSTAUSSOU,11620,43.2496570838, 2.3662986021,FR
11431,VILLENEUVE LES CORBIERES,11360,42.9848553966, 2.7967793394,FR
11432,VILLENEUVE LES MONTREAL,11290,43.1943746552, 2.18782678941,FR
11434,VILLEPINTE,11150,43.2498711617, 2.06462165287,FR
12002,AGUESSAC,12520,44.1968259654, 3.06387030498,FR
12018,BALAGUIER D OLT,12260,44.458873555, 1.98297177766,FR
12023,LA BASTIDE SOLAGES,12550,43.9452392779, 2.61731670514,FR
12025,BELMONT SUR RANCE,12370,43.8037612905, 2.74262599071,FR
12029,BOR ET BAR,12270,44.2133464767, 2.02193088766,FR
12036,BROMMAT,12600,44.8341310228, 2.67664580865,FR
12037,BROQUIES,12480,43.9974313835, 2.69341373502,FR
12053,LA CAPELLE BALAGUIER,12260,44.458873555, 1.98297177766,FR
12067,LE CLAPIER,12540,43.8787455208, 3.14987374669,FR
12073,COMPS LA GRAND VILLE,12120,44.1738899788, 2.54748951823,FR
12084,CREISSELS,12100,44.0898281066, 3.10621950967,FR
12094,ENTRAYGUES SUR TRUYERE,12140,44.6558037135, 2.58164635516,FR
12099,FAYET,12360,43.7904240706, 2.95795996186,FR
12100,FIRMI,12300,44.5947922935, 2.27515362111,FR
12108,GALGAN,12220,44.4874742078, 2.20156153334,FR
12109,GISSAC,12360,43.7904240706, 2.95795996186,FR
12110,GOLINHAC,12140,44.6558037135, 2.58164635516,FR
12127,LEDERGUES,12170,44.0745006665, 2.51889903328,FR
12129,LESTRADE ET THOUELS,12430,44.0864778708, 2.70135704539,FR
12144,MELJAC,12120,44.1738899788, 2.54748951823,FR
12145,MILLAU,12100,44.0898281066, 3.10621950967,FR
11053,BRUGAIROLLES,11300,43.0486403902, 2.18021479284,FR
11056,CABRESPINE,11160,43.3459989767, 2.52081672381,FR
11073,CASSAIGNES,11190,42.9166610889, 2.34707884311,FR
11046,BOURIGEOLE,11300,43.0486403902, 2.18021479284,FR
11059,CAILHAVEL,11240,43.1188469018, 2.06671991119,FR
11048,BOUTENAC,11200,43.1662010238, 2.78892059953,FR
11044,BOUISSE,11330,42.9592043622, 2.54502712372,FR
11070,CARLIPA,11170,43.2815047945, 2.19442534937,FR
11060,CAILLA,11140,42.7657925357, 2.16672255446,FR
1001,L ABERGEMENT CLEMENCIAT,1400,46.1331001556, 4.99858455549,FR
1021,ARS SUR FORMANS,1480,46.0178170669, 4.81482624573,FR
1006,AMBLEON,1300,45.7328309975, 5.65715901636,FR
2111,BRANCOURT EN LAONNOIS,2320,49.5132435119, 3.44966195866,FR
2133,BUCY LES PIERREPONT,2350,49.6393180069, 3.83480530276,FR
2169,CHATILLON LES SONS,2270,49.714634271, 3.5968851996,FR
2127,BRUYERES SUR FERE,2130,49.1935797302, 3.55982855371,FR
2141,LA CAPELLE,2260,49.966610567, 3.91127792949,FR
2175,CHAVIGNY,2880,49.4238582409, 3.38402828695,FR
2152,CERSEUIL,2220,49.3180108636, 3.5439628093,FR
2121,BRENY,2210,49.2129002416, 3.35011614589,FR
2129,BRUYS,2220,49.3180108636, 3.5439628093,FR
1146,DOMPIERRE SUR CHALARONNE,1400,46.1331001556, 4.99858455549,FR
1145,DOMPIERRE SUR VEYLE,1240,46.0916655381, 5.14797548998,FR
1169,GENOUILLEUX,1090,46.0869886552, 4.79611073763,FR
1151,DRUILLAT,1160,46.0747014809, 5.31394582841,FR
1175,GORREVOD,1190,46.4316836316, 4.96424452785,FR
1157,FAREINS,1480,46.0178170669, 4.81482624573,FR
1162,FLAXIEU,1350,45.8543854094, 5.76557245306,FR
1173,GEX,1170,46.3286268081, 6.03059799732,FR
1410,SONTHONNAX LA MONTAGNE,1580,46.2402104429, 5.54908625912,FR
1403,SERRIERES DE BRIORD,1470,45.805864462, 5.47727707691,FR
1384,ST RAMBERT EN BUGEY,1230,45.9329292993, 5.4692328328,FR
1383,ST PAUL DE VARAX,1240,46.0916655381, 5.14797548998,FR
1417,THEZILLIEU,1110,45.9724218119, 5.577110369,FR
1406,SERVIGNAT,1560,46.44295833, 5.12304891736,FR
1420,THOISSEY,1140,46.1670266686, 4.8459954399,FR
1411,SOUCLIN,1150,45.8772713832, 5.32595701713,FR
1401,SERGY,1630,46.2145490709, 5.95816552297,FR
1088,CHARNOZ SUR AIN,1800,45.8984701804, 5.16340257624,FR
1081,CHAMPFROMIER,1410,46.2796643227, 5.91198359476,FR
1098,CHAZEY BONS,1300,45.7328309975, 5.65715901636,FR
1115,CONFRANCON,1310,46.2412963633, 5.11553315012,FR
1109,COLLONGES,1550,46.1521009626, 5.90976446888,FR
1144,DOMMARTIN,1380,46.3161847468, 4.97400450524,FR
1075,CHALEINS,1480,46.0178170669, 4.81482624573,FR
1110,COLOMIEU,1300,45.7328309975, 5.65715901636,FR
1134,CROTTET,1750,46.2973437135, 4.87546330177,FR
1286,PARVES ET NATTAGES,1300,45.7328309975, 5.65715901636,FR
1332,ST ANDRE DE BAGE,1380,46.3161847468, 4.97400450524,FR
1337,ST BENIGNE,1190,46.4316836316, 4.96424452785,FR
1323,REYSSOUZE,1190,46.4316836316, 4.96424452785,FR
1319,RELEVANT,1990,46.0766987934, 4.89959868147,FR
1331,ST ALBAN,1450,46.1107742949, 5.45519733117,FR
1303,PONCIN,1450,46.1107742949, 5.45519733117,FR
1308,POUGNY,1550,46.1521009626, 5.90976446888,FR
1288,PERON,1630,46.2145490709, 5.95816552297,FR
1240,MATAFELON GRANGES,1580,46.2402104429, 5.54908625912,FR
1229,MALAFRETAZ,1340,46.3400485451, 5.13297724307,FR
1197,JOURNANS,1250,46.2066710432, 5.38605889851,FR
1196,JAYAT,1340,46.3400485451, 5.13297724307,FR
1225,LURCY,1090,46.0869886552, 4.79611073763,FR
1216,LHUIS,1680,45.752622921, 5.55446422211,FR
1211,LENT,1240,46.0916655381, 5.14797548998,FR
1209,LEAZ,1200,46.1338706653, 5.81259483702,FR
1245,BOHAS MEYRIAT RIGNAT,1250,46.2066710432, 5.38605889851,FR
1243,MESSIMY SUR SAONE,1480,46.0178170669, 4.81482624573,FR
1252,MOGNENEINS,1140,46.1670266686, 4.8459954399,FR
1280,ORDONNAZ,1510,45.8480243468, 5.61949053703,FR
1249,MIRIBEL,1700,45.8388521429, 4.95806179291,FR
1248,MIONNAY,1390,45.9283135136, 4.92727608131,FR
1247,MIJOUX,1170,46.3286268081, 6.03059799732,FR
1247,MIJOUX,1410,46.2796643227, 5.91198359476,FR
1284,OZAN,1190,46.4316836316, 4.96424452785,FR
2018,ANIZY LE CHATEAU,2320,49.5132435119, 3.44966195866,FR
2028,ATHIES SOUS LAON,2840,49.568752947, 3.72970362193,FR
2015,ANCIENVILLE,2600,49.2730511855, 3.12339772854,FR
2016,ANDELAIN,2800,49.6765246538, 3.39232111371,FR
1056,BOYEUX ST JEROME,1640,46.0337779297, 5.42151732468,FR
1052,BOULIGNEUX,1330,45.9976909227, 5.02164504767,FR
1072,CEYZERIAT,1250,46.2066710432, 5.38605889851,FR
1024,ATTIGNAT,1340,46.3400485451, 5.13297724307,FR
1029,BEAUPONT,1270,46.3890219242, 5.30343220636,FR
1051,BOLOZON,1450,46.1107742949, 5.45519733117,FR
1045,BIRIEUX,1330,45.9976909227, 5.02164504767,FR
1059,BRENAZ,1260,45.9506630232, 5.68746147482,FR
1358,ST GERMAIN LES PAROISSES,1300,45.7328309975, 5.65715901636,FR
1367,ST JULIEN SUR REYSSOUZE,1560,46.44295833, 5.12304891736,FR
1362,ST JEAN DE THURIGNEUX,1390,45.9283135136, 4.92727608131,FR
1376,ST MAURICE DE BEYNOST,1700,45.8388521429, 4.95806179291,FR
1368,ST JULIEN SUR VEYLE,1540,46.2212986861, 4.98198011208,FR
77020,BANNOST VILLEGAGNON,77970,48.6629667533, 3.14093688522,FR
77021,BARBEY,77130,48.3779377733, 2.96426271153,FR
77025,BAZOCHES LES BRAY,77118,48.3962434685, 3.16889442918,FR
77027,BEAUMONT DU GATINAIS,77890,48.1786433192, 2.5341392437,FR
77034,BLANDY,77115,48.5423516758, 2.77150375047,FR
77035,BLENNES,77940,48.3010302243, 2.97851595666,FR
77037,BOIS LE ROI,77590,48.4860029495, 2.72692404848,FR
77038,BOISSETTES,77350,48.5350739052, 2.60727189442,FR
77039,BOISSISE LA BERTRAND,77350,48.5350739052, 2.60727189442,FR
77045,BOUGLIGNY,77570,48.1729853259, 2.64931159934,FR
77048,BOURRON MARLOTTE,77780,48.334846204, 2.70118147516,FR
77050,BRANSLES,77620,48.1721615922, 2.86730865487,FR
77051,BRAY SUR SEINE,77480,48.4107576867, 3.29924400161,FR
77052,BREAU,77720,48.5850477632, 2.89649549396,FR
77059,BUSSY ST MARTIN,77600,48.8361794738, 2.73226890342,FR
77060,BUTHIERS,77760,48.2952371456, 2.54278715647,FR
77073,CHALAUTRE LA PETITE,77160,48.5896767151, 3.24326653179,FR
77081,CHAMPDEUIL,77390,48.6400377042, 2.79774834492,FR
77089,LA CHAPELLE RABLAIS,77370,48.5606029777, 3.03744473884,FR
77104,CHATRES,77610,48.733632054, 2.85536623292,FR
77122,COMBS LA VILLE,77380,48.657625449, 2.57531812256,FR
77123,COMPANS,77290,48.979596619, 2.61891087151,FR
77125,CONDE STE LIBIAIRE,77450,48.9197013165, 2.80318191468,FR
77131,COULOMMIERS,77120,48.7888234084, 3.09542739342,FR
77137,COURTACON,77560,48.6366559441, 3.38263980516,FR
77140,COUTENCON,77154,48.4891565609, 3.02294060118,FR
77156,DARVAULT,77140,48.2750471622, 2.70959190478,FR
77178,FAY LES NEMOURS,77167,48.2322771865, 2.71472288232,FR
77194,FORGES,77130,48.3779377733, 2.96426271153,FR
77198,FROMONT,77760,48.2952371456, 2.54278715647,FR
77199,FUBLAINES,77470,48.9379174307, 2.95705670409,FR
77206,GIREMOUTIERS,77120,48.7888234084, 3.09542739342,FR
77211,GRANDPUITS BAILLY CARROIS,77720,48.5850477632, 2.89649549396,FR
77215,GRETZ ARMAINVILLIERS,77220,48.7441435085, 2.75833565592,FR
77217,GRISY SUISNES,77166,48.6689119155, 2.65738604224,FR
77221,GUERMANTES,77600,48.8361794738, 2.73226890342,FR
77226,HERICY,77850,48.4420531578, 2.78873977925,FR
77228,HONDEVILLIERS,77510,48.8662025287, 3.27608944566,FR
77232,ISLES LES VILLENOY,77450,48.9197013165, 2.80318191468,FR
77238,JOUARRE,77640,48.9061273296, 3.10099022317,FR
77249,LESIGNY,77150,48.7409851538, 2.62903924486,FR
77256,LIZINES,77650,48.5152037389, 3.24054822685,FR
77257,LIZY SUR OURCQ,77440,49.0212011816, 3.05011291504,FR
77264,LUMIGNY NESLES ORMEAUX,77540,48.6871810178, 2.97337841043,FR
77267,LA MADELEINE SUR LOING,77570,48.1729853259, 2.64931159934,FR
77269,MAINCY,77950,48.5738526106, 2.69879445507,FR
77270,MAISONCELLES EN BRIE,77580,48.8615810668, 2.95011085183,FR
77280,MARY SUR MARNE,77440,49.0212011816, 3.05011291504,FR
77281,MAUPERTHUIS,77120,48.7888234084, 3.09542739342,FR
77283,MAY EN MULTIEN,77145,49.0701288323, 3.02511074107,FR
77284,MEAUX,77100,48.9417341013, 2.89233400365,FR
77285,LE MEE SUR SEINE,77350,48.5350739052, 2.60727189442,FR
77287,MEILLERAY,77320,48.7632652303, 3.31883214084,FR
77295,MOISENAY,77950,48.5738526106, 2.69879445507,FR
77300,MONTCEAUX LES MEAUX,77470,48.9379174307, 2.95705670409,FR
77305,MONTEREAU FAULT YONNE,77130,48.3779377733, 2.96426271153,FR
77306,MONTEREAU SUR LE JARD,77950,48.5738526106, 2.69879445507,FR
77307,MONTEVRAIN,77144,48.8764616468, 2.75749686803,FR
77313,MONTMACHOUX,77940,48.3010302243, 2.97851595666,FR
77316,MORET LOING ET ORVANNE,77250,48.3334508388, 2.82847916513,FR
77318,MORTCERF,77163,48.7979316478, 2.90271680607,FR
77328,NANTEAU SUR ESSONNE,77760,48.2952371456, 2.54278715647,FR
77330,NANTEUIL LES MEAUX,77100,48.9417341013, 2.89233400365,FR
77338,NOISY RUDIGNON,77940,48.3010302243, 2.97851595666,FR
77339,NOISY SUR ECOLE,77123,48.3612793646, 2.50123990973,FR
77349,OTHIS,77280,49.0831743052, 2.65347938812,FR
77354,PAMFOU,77830,48.4598569753, 2.90486661459,FR
77356,PASSY SUR SEINE,77480,48.4107576867, 3.29924400161,FR
77359,PERTHES,77930,48.4690092081, 2.55644926131,FR
77361,PIERRE LEVEE,77580,48.8615810668, 2.95011085183,FR
77363,LE PIN,77181,48.9151571578, 2.61878172318,FR
77373,PONTAULT COMBAULT,77340,48.7869451025, 2.6135089739,FR
77376,PRECY SUR MARNE,77410,48.9493778355, 2.7161171355,FR
77382,QUINCY VOISINS,77860,48.889293661, 2.86625543445,FR
77385,REBAIS,77510,48.8662025287, 3.27608944566,FR
77386,RECLOSES,77760,48.2952371456, 2.54278715647,FR
77387,REMAUVILLE,77710,48.2430767523, 2.88428828636,FR
77393,ROZAY EN BRIE,77540,48.6871810178, 2.97337841043,FR
77395,RUMONT,77760,48.2952371456, 2.54278715647,FR
77401,STE AULDE,77260,48.9692370904, 3.12481512651,FR
77405,ST CYR SUR MORIN,77750,48.9148071078, 3.22989278872,FR
77409,ST GERMAIN LAVAL,77130,48.3779377733, 2.96426271153,FR
77411,ST GERMAIN SOUS DOUE,77169,48.8249765475, 3.16311202199,FR
77417,ST LEGER,77510,48.8662025287, 3.27608944566,FR
77428,ST OUEN EN BRIE,77720,48.5850477632, 2.89649549396,FR
77431,ST PIERRE LES NEMOURS,77140,48.2750471622, 2.70959190478,FR
77432,ST REMY LA VANNE,77320,48.7632652303, 3.31883214084,FR
77435,ST SAUVEUR SUR ECOLE,77930,48.4690092081, 2.55644926131,FR
77436,ST SIMEON,77169,48.8249765475, 3.16311202199,FR
77444,SANCY LES PROVINS,77320,48.7632652303, 3.31883214084,FR
77447,SEINE PORT,77240,48.5645874906, 2.60004351705,FR
77451,SIGNY SIGNETS,77640,48.9061273296, 3.10099022317,FR
1005,AMBERIEUX EN DOMBES,1330,45.9976909227, 5.02164504767,FR
1009,ANDERT ET CONDON,1300,45.7328309975, 5.65715901636,FR
1026,BAGE LE CHATEL,1380,46.3161847468, 4.97400450524,FR
1008,AMBUTRIX,1500,45.9756078125, 5.34313562094,FR
1014,ARBENT,1100,46.2468792013, 5.65226081977,FR
1012,ARANC,1110,45.9724218119, 5.577110369,FR
2578,OULCHES LA VALLEE FOULON,2160,49.3988991643, 3.73817191868,FR
2621,PRESLES ET THIERNY,2860,49.4877552055, 3.68304619282,FR
2580,OULCHY LE CHATEAU,2210,49.2129002416, 3.35011614589,FR
2605,PLEINE SELVE,2240,49.7790821794, 3.44336123783,FR
2599,PIERREMANDE,2300,49.5817295222, 3.19169688143,FR
2613,PONTAVERT,2160,49.3988991643, 3.73817191868,FR
2604,PITHON,2480,49.7350949563, 3.17025333523,FR
2596,PAVANT,2310,48.9875725146, 3.27825135374,FR
2673,ST CHRISTOPHE A BERRY,2290,49.4210899814, 3.18005200266,FR
2698,SANCY LES CHEMINOTS,2880,49.4238582409, 3.38402828695,FR
2667,SACONIN ET BREUIL,2200,49.3519078898, 3.32022130463,FR
2678,STE GENEVIEVE,2340,49.6857429854, 4.02291889368,FR
2674,ST CLEMENT,2360,49.7487127053, 4.14397175229,FR
2671,ST AUBIN,2300,49.5817295222, 3.19169688143,FR
2675,STE CROIX,2820,49.512711001, 3.83344703407,FR
2670,ST ALGIS,2260,49.966610567, 3.91127792949,FR
2711,SERCHES,2220,49.3180108636, 3.5439628093,FR
2471,MARTIGNY COURPIERRE,2860,49.4877552055, 3.68304619282,FR
2483,MEZIERES SUR OISE,2240,49.7790821794, 3.44336123783,FR
2460,MARCY SOUS MARLE,2250,49.738528886, 3.80415822108,FR
2477,MERCIN ET VAUX,2200,49.3519078898, 3.32022130463,FR
2467,MARIZY ST MARD,2470,49.1587462946, 3.23193409616,FR
2490,MONAMPTEUIL,2000,49.5539294526, 3.59337928423,FR
2474,MENNESSIS,2700,49.6402663387, 3.29629531322,FR
2482,MEURIVAL,2160,49.3988991643, 3.73817191868,FR
2453,MAIZY,2160,49.3988991643, 3.73817191868,FR
2422,LESQUIELLES ST GERMAIN,2120,49.8880905983, 3.64129929098,FR
2435,LOGNY LES AUBENTON,2500,49.890758884, 4.10750632589,FR
2451,MAGNY LA FOSSE,2420,49.965313712, 3.25435934968,FR
2428,LICY CLIGNON,2810,49.0972662755, 3.19919233532,FR
2448,MACHECOURT,2350,49.6393180069, 3.83480530276,FR
2446,LY FONTAINE,2440,49.7371553151, 3.27915713778,FR
2426,LEVERGIES,2420,49.965313712, 3.25435934968,FR
2449,MACOGNY,2470,49.1587462946, 3.23193409616,FR
2427,LHUYS,2220,49.3180108636, 3.5439628093,FR
2558,LE NOUVION EN THIERACHE,2170,50.0019463297, 3.79418155637,FR
2538,NANTEUIL NOTRE DAME,2210,49.2129002416, 3.35011614589,FR
2535,NAMPCELLES LA COUR,2140,49.8210899574, 3.91454720458,FR
2537,NANTEUIL LA FOSSE,2880,49.4238582409, 3.38402828695,FR
2533,MURET ET CROUTTES,2210,49.2129002416, 3.35011614589,FR
2532,MOY DE L AISNE,2610,49.7503485769, 3.3508195834,FR
2552,NEUVILLETTE,2390,49.8377010181, 3.51039258756,FR
2542,NEUFLIEUX,2300,49.5817295222, 3.19169688143,FR
2554,NOGENTEL,2400,49.0643447361, 3.3912505936,FR
2539,NAUROY,2420,49.965313712, 3.25435934968,FR
2511,MONTIGNY EN ARROUAISE,2110,49.9673733527, 3.44143561655,FR
2515,MONTIGNY LES CONDE,2330,48.9761149923, 3.54081832468,FR
2512,MONTIGNY L ALLIER,2810,49.0972662755, 3.19919233532,FR
2501,MONTCHALONS,2860,49.4877552055, 3.68304619282,FR
2500,MONTBREHAIN,2110,49.9673733527, 3.44143561655,FR
2502,MONTCORNET,2340,49.6857429854, 4.02291889368,FR
2518,MONTLEVON,2330,48.9761149923, 3.54081832468,FR
2499,MONTBAVIN,2000,49.5539294526, 3.59337928423,FR
2525,MORCOURT,2100,49.8685441759, 3.30178111999,FR
2529,MORTIERS,2270,49.714634271, 3.5968851996,FR
2403,LANDIFAY ET BERTAIGNEMONT,2120,49.8880905983, 3.64129929098,FR
2405,LANDOUZY LA VILLE,2140,49.8210899574, 3.91454720458,FR
2393,JOUAIGNES,2220,49.3180108636, 3.5439628093,FR
2378,LA HERIE,2500,49.890758884, 4.10750632589,FR
2398,JUVIGNY,2880,49.4238582409, 3.38402828695,FR
2391,JEANTES,2140,49.8210899574, 3.91454720458,FR
2385,HOUSSET,2250,49.738528886, 3.80415822108,FR
2384,HOURY,2140,49.8210899574, 3.91454720458,FR
2418,LERZY,2260,49.966610567, 3.91127792949,FR
2373,HARY,2140,49.8210899574, 3.91454720458,FR
2577,OSTEL,2370,49.4107346804, 3.51937274632,FR
2566,OGNES,2300,49.5817295222, 3.19169688143,FR
2569,OISY,2450,50.0067534754, 3.69457044766,FR
2567,OHIS,2500,49.890758884, 4.10750632589,FR
2661,ROYAUCOURT ET CHAILVET,2000,49.5539294526, 3.59337928423,FR
2633,QUINCY SOUS LE MONT,2220,49.3180108636, 3.5439628093,FR
2653,ROMENY SUR MARNE,2310,48.9875725146, 3.27825135374,FR
2637,REMAUCOURT,2100,49.8685441759, 3.30178111999,FR
2641,RENNEVAL,2340,49.6857429854, 4.02291889368,FR
2644,RETHEUIL,2600,49.2730511855, 3.12339772854,FR
2624,PROISY,2120,49.8880905983, 3.64129929098,FR
2638,REMIES,2270,49.714634271, 3.5968851996,FR
2625,PROIX,2120,49.8880905983, 3.64129929098,FR
2737,TAVAUX ET PONTSERICOURT,2250,49.738528886, 3.80415822108,FR
2713,SERINGES ET NESLES,2130,49.1935797302, 3.55982855371,FR
2726,SOMMETTE EAUCOURT,2480,49.7350949563, 3.17025333523,FR
2718,SILLY LA POTERIE,2460,49.1801295296, 3.14646603898,FR
2732,SURFONTAINE,2240,49.7790821794, 3.44336123783,FR
2735,TANNIERES,2220,49.3180108636, 3.5439628093,FR
2738,TERGNIER,2700,49.6402663387, 3.29629531322,FR
2716,SERVAIS,2700,49.6402663387, 3.29629531322,FR
2729,SOUCY,2600,49.2730511855, 3.12339772854,FR
1004,AMBERIEU EN BUGEY,1500,45.9756078125, 5.34313562094,FR
2819,VINCY REUIL ET MAGNY,2340,49.6857429854, 4.02291889368,FR
2834,WISSIGNICOURT,2320,49.5132435119, 3.44966195866,FR
3022,BELLENAVES,3330,46.21070511, 3.02004688789,FR
3035,LE BOUCHAUD,3130,46.3489734556, 3.83441218096,FR
3005,ARCHIGNAT,3380,46.359524355, 2.44784253368,FR
2823,VOHARIES,2140,49.8210899574, 3.91454720458,FR
3015,BAGNEUX,3460,46.6591659055, 3.26064885085,FR
2824,VORGES,2860,49.4877552055, 3.68304619282,FR
3037,BRAIZE,3360,46.6639251389, 2.70661035992,FR
4162,REVEST DES BROUSSES,4150,44.0485937813, 5.61131710182,FR
4155,PRADS HAUTE BLEONE,4420,44.1915370123, 6.39634951994,FR
4170,LA ROCHETTE,6260,43.9759308664, 6.94521623557,FR
4157,PUIMOISSON,4410,43.8849946548, 6.15663492635,FR
4159,REDORTIERS,4150,44.0485937813, 5.61131710182,FR
7075,CROS DE GEORAND,7630,44.823196527, 4.12827779008,FR
7059,CHATEAUBOURG,7130,44.9316322296, 4.81226403261,FR
7053,CHANDOLAS,7230,44.4641163394, 4.18572827248,FR
7048,CHALENCON,7240,44.8957469778, 4.61507184197,FR
7051,CHAMPAGNE,7340,45.2924764647, 4.74577611197,FR
7065,CHIROLS,7380,44.6419926535, 4.23684752735,FR
7077,DARBRES,7170,44.577154025, 4.48966279879,FR
7052,CHAMPIS,7440,44.944716427, 4.72650218637,FR
7039,BOZAS,7410,45.0785518852, 4.63820208149,FR
8107,CHATEAU PORCIEN,8360,49.5450302072, 4.21650848613,FR
8115,CHEMERY CHEHERY,8450,49.6051172684, 4.92625814673,FR
8082,BRECY BRIERES,8400,49.3759788124, 4.68476998487,FR
8097,CHALLERANGE,8400,49.3759788124, 4.68476998487,FR
8120,CHEVIERES,8250,49.3052152829, 4.87924744188,FR
8104,CHARDENY,8400,49.3759788124, 4.68476998487,FR
8203,GUIGNICOURT SUR VENCE,8430,49.640530091, 4.63694395788,FR
8180,LA FRANCHEVILLE,8000,49.7589748085, 4.71308364849,FR
8200,GRIVY LOISY,8400,49.3759788124, 4.68476998487,FR
8211,HARAUCOURT,8450,49.6051172684, 4.92625814673,FR
8223,HERBEUVAL,8370,49.5990875721, 5.27880368483,FR
8220,HAUVINE,8310,49.3635077627, 4.43297841227,FR
8172,FLIGNY,8380,49.91319612, 4.30466764624,FR
8235,ISSANCOURT ET RUMEL,8440,49.7465336406, 4.81357930291,FR
8225,HERPY L ARLESIENNE,8360,49.5450302072, 4.21650848613,FR
8279,MARS SOUS BOURCQ,8400,49.3759788124, 4.68476998487,FR
8249,LAVAL MORENCY,8150,49.8122244724, 4.52545242673,FR
8278,MARQUIGNY,8390,49.5311407275, 4.82165471787,FR
8269,MALANDRY,8370,49.5990875721, 5.27880368483,FR
8262,LUCQUY,8300,49.4890710736, 4.33770775217,FR
8245,LANCON,8250,49.3052152829, 4.87924744188,FR
8232,ILLY,8200,49.736070844, 4.95877999805,FR
8384,ST LAMBERT ET MONT DE JEUX,8130,49.4948997956, 4.58771124171,FR
8386,ST LOUP EN CHAMPAGNE,8300,49.4890710736, 4.33770775217,FR
8397,ST REMY LE PETIT,8300,49.4890710736, 4.33770775217,FR
8346,PRIX LES MEZIERES,8000,49.7589748085, 4.71308364849,FR
8356,REMAUCOURT,8220,49.6447010155, 4.20764091673,FR
8380,ST FERGEUX,8360,49.5450302072, 4.21650848613,FR
8385,ST LAURENT,8090,49.7814512769, 4.65888775481,FR
8388,ST MARCEAU,8160,49.6516847115, 4.77872166277,FR
8317,LA NEUVILLE A MAIRE,8450,49.6051172684, 4.92625814673,FR
8313,NANTEUIL SUR AISNE,8300,49.4890710736, 4.33770775217,FR
8304,MONTIGNY SUR MEUSE,8170,49.9974542935, 4.7285296063,FR
8296,MONTCHEUTIN,8250,49.3052152829, 4.87924744188,FR
8294,LA MONCELLE,8140,49.7027985967, 5.05389161183,FR
8326,NOUART,8240,49.4367865299, 4.95899557171,FR
8336,OSNES,8110,49.6541821872, 5.19219003172,FR
8417,SEVIGNY LA FORET,8230,49.9157903394, 4.51147538743,FR
8419,SIGNY L ABBAYE,8460,49.7134288186, 4.4616721559,FR
8410,SEMIDE,8400,49.3759788124, 4.68476998487,FR
8411,SEMUY,8130,49.4948997956, 4.58771124171,FR
8446,THENORGUES,8240,49.4367865299, 4.95899557171,FR
8445,THELONNE,8350,49.6865527767, 4.88064716793,FR
8451,LE THOUR,8190,49.4739708484, 4.1206932066,FR
8457,TOURNES,8090,49.7814512769, 4.65888775481,FR
8439,TANNAY,8390,49.5311407275, 4.82165471787,FR
8422,SINGLY,8430,49.640530091, 4.63694395788,FR
8438,TAIZY,8360,49.5450302072, 4.21650848613,FR
8453,TOGES,8400,49.3759788124, 4.68476998487,FR
8460,TREMBLOIS LES ROCROI,8150,49.8122244724, 4.52545242673,FR
8479,VILLERS LE TOURNEUR,8430,49.640530091, 4.63694395788,FR
8463,VAUX EN DIEULET,8240,49.4367865299, 4.95899557171,FR
8464,VAUX LES MOURON,8250,49.3052152829, 4.87924744188,FR
8486,VIREUX MOLHAIN,8320,50.0723012487, 4.74304215812,FR
9001,AIGUES JUNTES,9240,43.0066758951, 1.4205570849,FR
9007,ALLIERES,9240,43.0066758951, 1.4205570849,FR
9015,ARIGNAC,9400,42.8458484074, 1.57117119842,FR
12149,MONTCLAR,12550,43.9452392779, 2.61731670514,FR
12157,MONTROZIER,12630,44.3813386273, 2.71254776972,FR
12166,MUROLS,12600,44.8341310228, 2.67664580865,FR
12178,PAULHE,12520,44.1968259654, 3.06387030498,FR
12182,PIERREFICHE,12130,44.4625155533, 2.98303027843,FR
12191,PRIVEZAC,12350,44.4010803949, 2.15854701364,FR
12199,RIGNAC,12390,44.4348428997, 2.31749695196,FR
12207,RULLAC ST CIRQ,12120,44.1738899788, 2.54748951823,FR
12212,ST BEAULIZE,12540,43.8787455208, 3.14987374669,FR
12219,STE EULALIE D OLT,12130,44.4625155533, 2.98303027843,FR
12220,STE EULALIE DE CERNON,12230,43.9902158825, 3.26114811927,FR
12225,ST GEORGES DE LUZENCON,12100,44.0898281066, 3.10621950967,FR
12226,ST HIPPOLYTE,12140,44.6558037135, 2.58164635516,FR
12227,ST IGEST,12260,44.458873555, 1.98297177766,FR
12230,ST JEAN DELNOUS,12170,44.0745006665, 2.51889903328,FR
12235,ST JUST SUR VIAUR,12170,44.0745006665, 2.51889903328,FR
12236,ST LAURENT DE LEVEZOU,12620,44.1639182272, 2.94123371794,FR
12240,ST PARTHEM,12300,44.5947922935, 2.27515362111,FR
12254,SALLES LA SOURCE,12330,44.4669223048, 2.48171518474,FR
12264,SEBAZAC CONCOURES,12740,44.4071370966, 2.63127194747,FR
12265,SEBRAZAC,12190,44.5757488453, 2.68710158175,FR
12277,TAUSSAC,12600,44.8341310228, 2.67664580865,FR
12278,TAYRAC,12440,44.2188237556, 2.19456712254,FR
12291,VERRIERES,12520,44.1968259654, 3.06387030498,FR
12293,VEYREAU,12720,44.1809861731, 3.25262326426,FR
12295,VIALA DU PAS DE JAUX,12250,43.948416094, 3.02271239908,FR
12303,VIMENET,12310,44.384469335, 2.84476302604,FR
13010,BARBENTANE,13570,43.8946430262, 4.749492461,FR
13014,BERRE L ETANG,13130,43.5038264894, 5.16082559313,FR
13015,BOUC BEL AIR,13320,43.44709567, 5.41278086105,FR
13018,CABANNES,13440,43.8590936432, 4.95774539793,FR
13023,CEYRESTE,13600,43.2057739447, 5.6225082578,FR
13033,ENSUES LA REDONNE,13820,43.3537890025, 5.19969508788,FR
13035,EYGUIERES,13430,43.7025400757, 5.01572210445,FR
13036,EYRAGUES,13630,43.8430965536, 4.84389669406,FR
13042,GEMENOS,13420,43.2982409252, 5.64453739923,FR
13043,GIGNAC LA NERTHE,13180,43.390482869, 5.22788588973,FR
13045,GRAVESON,13690,43.8539709841, 4.76690510609,FR
13046,GREASQUE,13850,43.4267657218, 5.54724216538,FR
13061,ST PIERRE DE MEZOARGUES,13150,43.811635575, 4.68697564727,FR
13062,MIMET,13105,43.4125486694, 5.49850212317,FR
13072,PEYNIER,13790,43.466397869, 5.61228660864,FR
13078,PORT ST LOUIS DU RHONE,13230,43.4159102575, 4.80600123608,FR
13084,LA ROQUE D ANTHERON,13640,43.717611873, 5.3021029918,FR
13085,ROQUEFORT LA BEDOULE,13830,43.2511968677, 5.62904629531,FR
13097,ST MARTIN DE CRAU,13310,43.6121626168, 4.85649120656,FR
13104,SAUSSET LES PINS,13960,43.3457310767, 5.11745553052,FR
13107,SIMIANE COLLONGUE,13109,43.4114697377, 5.43791091838,FR
13110,TRETS,13530,43.4378404321, 5.70012599644,FR
13202,MARSEILLE 02,13002,43.3127325556, 5.36355601234,FR
13205,MARSEILLE 05,13005,43.2924809562, 5.39796837854,FR
13212,MARSEILLE 12,13012,43.3077980395, 5.43935485792,FR
13213,MARSEILLE 13,13013,43.3495227907, 5.43359654239,FR
14005,AIRAN,14370,49.1190784398, -0.159512854419,FR
14006,AMAYE SUR ORNE,14210,49.1001637748, -0.508327897598,FR
14016,ANNEBAULT,14430,49.2183532057, -0.0305664652154,FR
14031,LES AUTHIEUX PAPION,14140,49.0354632921, 0.127071984738,FR
14034,AVENAY,14210,49.1001637748, -0.508327897598,FR
14036,BANNEVILLE LA CAMPAGNE,14940,49.1833480619, -0.224513518796,FR
14044,BASLY,14610,49.2527836333, -0.426386244935,FR
14045,BASSENEVILLE,14670,49.1818769935, -0.152819265624,FR
14047,BAYEUX,14400,49.2815631038, -0.715433077365,FR
14054,BEAUMESNIL,14380,48.8544817922, -1.0273831979,FR
14055,BEAUMONT EN AUGE,14950,49.2830960197, 0.0921245287823,FR
14057,BELLENGREVILLE,14370,49.1190784398, -0.159512854419,FR
14073,LA BIGNE,14260,49.0066968594, -0.682033937829,FR
14081,BOISSEY,14170,48.9808309881, -0.0400174122505,FR
14093,BRANVILLE,14430,49.2183532057, -0.0305664652154,FR
14124,LA CAMBE,14230,49.3176758888, -1.05497360925,FR
14125,CAMBES EN PLAINE,14610,49.2527836333, -0.426386244935,FR
14134,CANTELOUP,14370,49.1190784398, -0.159512854419,FR
14136,CARDONVILLE,14230,49.3176758888, -1.05497360925,FR
14141,CASTILLON EN AUGE,14140,49.0354632921, 0.127071984738,FR
14142,CASTILLY,14330,49.2420322509, -0.955592852997,FR
14143,CAUMONT L EVENTE,14240,49.1055577852, -0.781481644045,FR
14145,CAUVICOURT,14190,49.0218805149, -0.23188447049,FR
14146,CAUVILLE,14770,48.9262068, -0.631065513494,FR
14150,CESNY BOIS HALBOUT,14220,48.9913936572, -0.409929998013,FR
14158,CHICHEBOVILLE,14370,49.1190784398, -0.159512854419,FR
14163,CLEVILLE,14370,49.1190784398, -0.159512854419,FR
14164,CLINCHAMPS SUR ORNE,14320,49.1013108668, -0.374113026429,FR
14172,COMMES,14520,49.3400701436, -0.771788294928,FR
1372,ST MARTIN DE BAVEL,1510,45.8480243468, 5.61949053703,FR
1339,ST BERNARD,1600,45.9478092043, 4.80583207499,FR
1371,ST MARCEL,1390,45.9283135136, 4.92727608131,FR
1349,ST ELOI,1800,45.8984701804, 5.16340257624,FR
1369,ST JUST,1250,46.2066710432, 5.38605889851,FR
2006,AISONVILLE ET BERNOVILLE,2110,49.9673733527, 3.44143561655,FR
1449,VILLETTE SUR AIN,1320,46.0113616676, 5.19303242296,FR
2013,AMIFONTAINE,2190,49.457994666, 3.96807425363,FR
2005,AGUILCOURT,2190,49.457994666, 3.96807425363,FR
1444,VILLEBOIS,1150,45.8772713832, 5.32595701713,FR
2008,AIZY JOUY,2370,49.4107346804, 3.51937274632,FR
1430,VARAMBON,1160,46.0747014809, 5.31394582841,FR
1424,TRAMOYES,1390,45.9283135136, 4.92727608131,FR
1451,VIRIAT,1440,46.2508236356, 5.22311457024,FR
2033,AUBIGNY EN LAONNOIS,2820,49.512711001, 3.83344703407,FR
2050,BARZY EN THIERACHE,2170,50.0019463297, 3.79418155637,FR
2034,AUDIGNICOURT,2300,49.5817295222, 3.19169688143,FR
2042,AZY SUR MARNE,2400,49.0643447361, 3.3912505936,FR
2047,BARENTON CEL,2000,49.5539294526, 3.59337928423,FR
2035,AUDIGNY,2120,49.8880905983, 3.64129929098,FR
2060,BEAUVOIS EN VERMANDOIS,2590,49.812289272, 3.13247783385,FR
2101,BOSMONT SUR SERRE,2250,49.738528886, 3.80415822108,FR
2080,BESNY ET LOIZY,2870,49.6039941485, 3.51899449052,FR
2093,BLERANCOURT,2300,49.5817295222, 3.19169688143,FR
2058,BEAURIEUX,2160,49.3988991643, 3.73817191868,FR
2079,BESMONT,2500,49.890758884, 4.10750632589,FR
2094,BLESMES,2400,49.0643447361, 3.3912505936,FR
2070,BERNOT,2120,49.8880905983, 3.64129929098,FR
2064,BELLEU,2200,49.3519078898, 3.32022130463,FR
2103,BOUE,2450,50.0067534754, 3.69457044766,FR
2205,COLLIGIS CRANDELAIN,2860,49.4877552055, 3.68304619282,FR
2178,CHERMIZY AILLES,2860,49.4877552055, 3.68304619282,FR
2197,CLAIRFONTAINE,2260,49.966610567, 3.91127792949,FR
2190,CHIVRES VAL,2880,49.4238582409, 3.38402828695,FR
2207,COMMENCHON,2300,49.5817295222, 3.19169688143,FR
2182,CHEVENNES,2250,49.738528886, 3.80415822108,FR
2206,COLONFAY,2120,49.8880905983, 3.64129929098,FR
2187,CHIERRY,2400,49.0643447361, 3.3912505936,FR
2220,COULONGES COHAN,2130,49.1935797302, 3.55982855371,FR
2253,CUISY EN ALMONT,2200,49.3519078898, 3.32022130463,FR
2233,CRAMAILLE,2130,49.1935797302, 3.55982855371,FR
2248,CUIRIEUX,2350,49.6393180069, 3.83480530276,FR
2266,DOLIGNON,2360,49.7487127053, 4.14397175229,FR
2234,CRAONNE,2160,49.3988991643, 3.73817191868,FR
2263,DHUIZEL,2220,49.3180108636, 3.5439628093,FR
2268,DOMPTIN,2310,48.9875725146, 3.27825135374,FR
2265,DOHIS,2360,49.7487127053, 4.14397175229,FR
2261,DERCY,2270,49.714634271, 3.5968851996,FR
2313,FLAVIGNY LE GRAND ET BEAURAIN,2120,49.8880905983, 3.64129929098,FR
2321,FONTAINE LES VERVINS,2140,49.8210899574, 3.91454720458,FR
2292,ETAMPES SUR MARNE,2400,49.0643447361, 3.3912505936,FR
2302,FAVEROLLES,2600,49.2730511855, 3.12339772854,FR
2297,ETREPILLY,2400,49.0643447361, 3.3912505936,FR
2304,LA FERE,2800,49.6765246538, 3.39232111371,FR
2280,EPIEDS,2400,49.0643447361, 3.3912505936,FR
2278,EPARCY,2500,49.890758884, 4.10750632589,FR
2303,FAYET,2100,49.8685441759, 3.30178111999,FR
2349,GOUDELANCOURT LES BERRIEUX,2820,49.512711001, 3.83344703407,FR
2332,FRESNES EN TARDENOIS,2130,49.1935797302, 3.55982855371,FR
2353,GRANDLUP ET FAY,2350,49.6393180069, 3.83480530276,FR
2331,FRANQUEVILLE,2140,49.8210899574, 3.91454720458,FR
2358,GROUGIS,2110,49.9673733527, 3.44143561655,FR
2333,FRESNES,2380,49.5102092676, 3.34013321882,FR
2328,FOSSOY,2650,49.0487416682, 3.50137456467,FR
5128,ST ANDRE D EMBRUN,5200,44.5288516779, 6.5354706642,FR
5122,LA ROCHE DE RAME,5310,44.7404687507, 6.51315581075,FR
5066,LA HAUTE BEAUME,5140,44.5714639145, 5.71301541571,FR
5121,ROCHEBRUNE,5190,44.4605179001, 6.21963036357,FR
5063,LA GRAVE,5320,45.0603930366, 6.28395609682,FR
5096,ORCIERES,5170,44.6838701785, 6.34860583609,FR
5127,ROUSSET,5190,44.4605179001, 6.21963036357,FR
5116,REOTIER,5600,44.6692655644, 6.68957697025,FR
5061,GAP,5000,44.5625391818, 6.06869105196,FR
5183,VILLAR ST PANCRACE,5100,44.9491518655, 6.66040427296,FR
5180,LES VIGNEAUX,5120,44.8094841001, 6.52475602144,FR
5172,TRESCLEOUX,5700,44.3940115409, 5.69370523608,FR
5156,ST SAUVEUR,5200,44.5288516779, 6.5354706642,FR
5165,SAVOURNON,5700,44.3940115409, 5.69370523608,FR
5184,VITROLLES,5110,44.4207763545, 5.95755460075,FR
5160,SALERANS,5300,44.2953436251, 5.81680688288,FR
5176,VALSERRES,5130,44.47463423, 6.07115891935,FR
5157,ST VERAN,5350,44.7398415746, 6.81322835157,FR
7134,LAURAC EN VIVARAIS,7110,44.5628974599, 4.2173201674,FR
7168,ORGNAC L AVEN,7150,44.389065445, 4.39839654491,FR
7129,LAMASTRE,7270,44.9912786695, 4.60999260675,FR
7142,LESPERON,7660,44.7442437904, 3.96612267171,FR
7165,NONIERES,7160,44.8862091269, 4.40650740224,FR
7139,LAVIOLLE,7530,44.7656875019, 4.35207431402,FR
7159,MIRABEL,7170,44.577154025, 4.48966279879,FR
7182,PRADES,7380,44.6419926535, 4.23684752735,FR
7187,PRUNET,7110,44.5628974599, 4.2173201674,FR
8347,PUILLY ET CHARBEAUX,8370,49.5990875721, 5.27880368483,FR
8358,REMILLY LES POTHEES,8150,49.8122244724, 4.52545242673,FR
8357,REMILLY AILLICOURT,8450,49.6051172684, 4.92625814673,FR
8330,NOVY CHEVRIERES,8300,49.4890710736, 4.33770775217,FR
8343,POURU ST REMY,8140,49.7027985967, 5.05389161183,FR
8339,PERTHES,8300,49.4890710736, 4.33770775217,FR
8361,RENWEZ,8150,49.8122244724, 4.52545242673,FR
77452,SIGY,77520,48.4787752425, 3.12194735393,FR
77455,SOIGNOLLES EN BRIE,77111,48.6502963027, 2.71437354828,FR
77456,SOISY BOUY,77650,48.5152037389, 3.24054822685,FR
77458,SOUPPES SUR LOING,77460,48.1889258767, 2.77893143311,FR
77479,VAIRES SUR MARNE,77360,48.870149545, 2.63599296332,FR
77480,VALENCE EN BRIE,77830,48.4598569753, 2.90486661459,FR
77491,VENEUX LES SABLONS,77250,48.3334508388, 2.82847916513,FR
77493,VERNEUIL L ETANG,77390,48.6400377042, 2.79774834492,FR
77496,VIEUX CHAMPAGNE,77370,48.5606029777, 3.03744473884,FR
77500,VILLEBEON,77710,48.2430767523, 2.88428828636,FR
77509,VILLENEUVE LES BORDES,77154,48.4891565609, 3.02294060118,FR
77521,VILLIERS SUR MORIN,77580,48.8615810668, 2.95011085183,FR
77529,VOULANGIS,77580,48.8615810668, 2.95011085183,FR
77532,VULAINES LES PROVINS,77160,48.5896767151, 3.24326653179,FR
78013,ANDELU,78770,48.8635257362, 1.79608711913,FR
78029,AUBERGENVILLE,78410,48.9601241693, 1.86465256885,FR
78030,AUFFARGIS,78610,48.7133396179, 1.81485270271,FR
78034,AUTEUIL,78770,48.8635257362, 1.79608711913,FR
78036,AUTOUILLET,78770,48.8635257362, 1.79608711913,FR
78048,BAZAINVILLE,78550,48.8059624153, 1.62530918633,FR
78053,BEHOUST,78910,48.8500627477, 1.67789030017,FR
78068,BLARU,78270,49.0329490091, 1.54187293209,FR
78073,BOIS D ARCY,78390,48.8043941773, 2.01866204781,FR
78087,BONNELLES,78830,48.6221711105, 1.99864954313,FR
78090,BOUAFLE,78410,48.9601241693, 1.86465256885,FR
78123,CARRIERES SOUS POISSY,78955,48.9453564407, 2.02870519723,FR
78143,CHATEAUFORT,78117,48.7426119196, 2.10563873194,FR
78147,CHAUFOUR LES BONNIERES,78270,49.0329490091, 1.54187293209,FR
78165,LES CLAYES SOUS BOIS,78340,48.8190038285, 1.98403362537,FR
78168,COIGNIERES,78310,48.7604855324, 1.91898209487,FR
78193,DAMPIERRE EN YVELINES,78720,48.6724843894, 1.96251286173,FR
78194,DANNEMARIE,78550,48.8059624153, 1.62530918633,FR
78231,FAVRIEUX,78200,48.9657827811, 1.64662201232,FR
78234,FLACOURT,78200,48.9657827811, 1.64662201232,FR
78262,GALLUIS,78490,48.7796365302, 1.79456166504,FR
78265,GARANCIERES,78890,48.8233853015, 1.75829198183,FR
78285,GRESSEY,78550,48.8059624153, 1.62530918633,FR
78291,GUERVILLE,78930,48.9393577295, 1.72733973535,FR
78300,HARGEVILLE,78790,48.8921487904, 1.67421696367,FR
78324,JOUY MAUVOISIN,78200,48.9657827811, 1.64662201232,FR
78327,JUZIERS,78820,49.0006712804, 1.84049263155,FR
78329,LAINVILLE EN VEXIN,78440,49.0236826177, 1.79343875467,FR
78362,MANTES LA VILLE,78711,48.9750839165, 1.71186276145,FR
78366,MAREIL LE GUYON,78490,48.7796365302, 1.79456166504,FR
78396,LE MESNIL LE ROI,78600,48.9430101305, 2.14143556123,FR
78398,LES MESNULS,78490,48.7796365302, 1.79456166504,FR
78406,MILON LA CHAPELLE,78470,48.7175747571, 2.05026286373,FR
78407,MITTAINVILLE,78125,48.6430372045, 1.73672193818,FR
78415,MONTAINVILLE,78124,48.884244051, 1.86268946991,FR
78431,MORAINVILLIERS,78630,48.9218149018, 1.96212376753,FR
78443,NEAUPHLE LE VIEUX,78640,48.8210314117, 1.88134330227,FR
78444,NEAUPHLETTE,78980,48.9416314677, 1.55443275469,FR
78470,ORPHIN,78125,48.6430372045, 1.73672193818,FR
78486,LE PERRAY EN YVELINES,78610,48.7133396179, 1.81485270271,FR
78498,POISSY,78300,48.9238513521, 2.02821434005,FR
78503,PORT VILLEZ,78270,49.0329490091, 1.54187293209,FR
78536,SAILLY,78440,49.0236826177, 1.79343875467,FR
78605,TACOIGNIERES,78910,48.8500627477, 1.67789030017,FR
78606,LE TARTRE GAUDRAN,78113,48.7269719682, 1.6475078387,FR
78620,TOUSSUS LE NOBLE,78117,48.7426119196, 2.10563873194,FR
78624,TRIEL SUR SEINE,78510,48.9781198658, 2.00818427315,FR
78638,VAUX SUR SEINE,78740,49.0109765215, 1.96738669464,FR
78643,VERNOUILLET,78540,48.9651204678, 1.97419104222,FR
78677,VILLETTE,78930,48.9393577295, 1.72733973535,FR
78683,VILLIERS ST FREDERIC,78640,48.8210314117, 1.88134330227,FR
78686,VIROFLAY,78220,48.8027347247, 2.17103281984,FR
78688,VOISINS LE BRETONNEUX,78960,48.7588159702, 2.0488584635,FR
79002,ADILLY,79200,46.6764128938, -0.220232536654,FR
79004,AIGONNAY,79370,46.2791849908, -0.237039794874,FR
79024,AZAY LE BRULE,79400,46.4367634451, -0.226400465767,FR
79029,BEAULIEU SOUS PARTHENAY,79420,46.554353559, -0.175702505371,FR
79042,BOUGON,79800,46.3757530547, -0.0927719850216,FR
79046,LE BOURDET,79210,46.2343123422, -0.655631681594,FR
79050,BRETIGNOLLES,79140,46.8536328396, -0.662287760231,FR
79051,LE BREUIL BERNARD,79320,46.7253627429, -0.568110256331,FR
79054,BRIE,79100,46.9728352964, -0.169886662398,FR
79055,BRIEUIL SUR CHIZE,79170,46.1222201678, -0.263662394431,FR
79066,CHAMPDENIERS ST DENIS,79220,46.4780154702, -0.409601333646,FR
79070,LA CHAPELLE BATON,79220,46.4780154702, -0.409601333646,FR
79071,LA CHAPELLE BERTRAND,79200,46.6764128938, -0.220232536654,FR
79075,LA CHAPELLE ST ETIENNE,79240,46.6372922591, -0.552958918759,FR
79077,LA CHAPELLE THIREUIL,79160,46.4823694828, -0.548315105919,FR
79078,PRISSE LA CHARRIERE,79360,46.1718369403, -0.460736148916,FR
79080,CHATILLON SUR THOUET,79200,46.6764128938, -0.220232536654,FR
79084,CHENAY,79120,46.2813998001, 0.0312023029637,FR
79085,CHERIGNE,79170,46.1222201678, -0.263662394431,FR
79086,CHERVEUX,79410,46.3956786662, -0.424997632045,FR
2765,VAUCELLES ET BEFFECOURT,2000,49.5539294526, 3.59337928423,FR
2744,TORCY EN VALOIS,2810,49.0972662755, 3.19919233532,FR
2769,VAUX ANDIGNY,2110,49.9673733527, 3.44143561655,FR
2757,VADENCOURT,2120,49.8880905983, 3.64129929098,FR
2743,LE THUEL,2340,49.6857429854, 4.02291889368,FR
2749,TROESNES,2460,49.1801295296, 3.14646603898,FR
2764,VASSOGNE,2160,49.3988991643, 3.73817191868,FR
7060,CHATEAUNEUF DE VERNOUX,7240,44.8957469778, 4.61507184197,FR
7005,ALBA LA ROMAINE,7400,44.5767272135, 4.6363152024,FR
7040,BOUCIEU LE ROI,7270,44.9912786695, 4.60999260675,FR
7017,LES ASSIONS,7140,44.4499905153, 4.07415395181,FR
7049,LE CHAMBON,7160,44.8862091269, 4.40650740224,FR
7016,ASPERJOC,7600,44.7013043374, 4.34237550127,FR
7008,ALISSAS,7210,44.6929667083, 4.68338183575,FR
7002,AILHON,7200,44.6052917167, 4.40219441628,FR
7037,BOREE,7310,44.9172375396, 4.28592405174,FR
7121,LACHAPELLE GRAILLOUSE,7470,44.8185344831, 4.01919191039,FR
7119,LE LAC D ISSARLES,7470,44.8185344831, 4.01919191039,FR
7104,ISSAMOULENC,7190,44.8207349363, 4.47908015633,FR
7128,LALOUVESC,7520,45.1121738943, 4.50340666434,FR
7105,ISSANLAS,7660,44.7442437904, 3.96612267171,FR
7116,LABEGUDE,7200,44.6052917167, 4.40219441628,FR
7108,JAUNAC,7160,44.8862091269, 4.40650740224,FR
7107,JAUJAC,7380,44.6419926535, 4.23684752735,FR
7131,LANAS,7200,44.6052917167, 4.40219441628,FR
7135,LAVAL D AURELLE,7590,44.6410728179, 3.97092994419,FR
7141,LENTILLERES,7200,44.6052917167, 4.40219441628,FR
7170,PAILHARES,7410,45.0785518852, 4.63820208149,FR
7162,MONTREAL,7110,44.5628974599, 4.2173201674,FR
7155,MERCUER,7200,44.6052917167, 4.40219441628,FR
7150,MARIAC,7160,44.8862091269, 4.40650740224,FR
7156,MEYRAS,7380,44.6419926535, 4.23684752735,FR
7140,LEMPS,7610,45.1098494748, 4.78303209156,FR
8308,MONT ST MARTIN,8400,49.3759788124, 4.68476998487,FR
8286,MENIL ANNELLES,8310,49.3635077627, 4.43297841227,FR
8306,MONT LAURENT,8130,49.4948997956, 4.58771124171,FR
8328,NOUZONVILLE,8700,49.8150344171, 4.80706022542,FR
8303,MONTHOIS,8400,49.3759788124, 4.68476998487,FR
8334,OMICOURT,8450,49.6051172684, 4.92625814673,FR
8295,MONDIGNY,8430,49.640530091, 4.63694395788,FR
8325,NOIRVAL,8400,49.3759788124, 4.68476998487,FR
8311,MOUZON,8210,49.5753580184, 5.05747412854,FR
8342,POURU AUX BOIS,8140,49.7027985967, 5.05389161183,FR
8350,QUATRE CHAMPS,8400,49.3759788124, 4.68476998487,FR
8369,LA ROMAGNE,8220,49.6447010155, 4.20764091673,FR
8355,REGNIOWEZ,8230,49.9157903394, 4.51147538743,FR
8383,ST JUVIN,8250,49.3052152829, 4.87924744188,FR
8373,RUMIGNY,8290,49.7819854475, 4.29783858253,FR
8351,QUILLY,8400,49.3759788124, 4.68476998487,FR
8376,SAILLY,8110,49.6541821872, 5.19219003172,FR
8375,SACHY,8110,49.6541821872, 5.19219003172,FR
8349,PURE,8110,49.6541821872, 5.19219003172,FR
8400,SAPOGNE ET FEUCHERES,8160,49.6516847115, 4.77872166277,FR
8399,SAPOGNE SUR MARCHE,8370,49.5990875721, 5.27880368483,FR
8393,ST PIERRE A ARNES,8310,49.3635077627, 4.43297841227,FR
8390,STE MARIE,8400,49.3759788124, 4.68476998487,FR
8405,SAUVILLE,8390,49.5311407275, 4.82165471787,FR
8389,ST MARCEL,8460,49.7134288186, 4.4616721559,FR
8427,SORBON,8300,49.4890710736, 4.33770775217,FR
8426,SON,8300,49.4890710736, 4.33770775217,FR
8476,VILLERS DEVANT LE THOUR,8190,49.4739708484, 4.1206932066,FR
8482,VILLERS SUR LE MONT,8430,49.640530091, 4.63694395788,FR
8428,SORCY BAUTHEMONT,8270,49.6013662608, 4.45102282302,FR
8488,VIVIER AU COURT,8440,49.7465336406, 4.81357930291,FR
8472,VIEL ST REMY,8270,49.6013662608, 4.45102282302,FR
8471,VERRIERES,8390,49.5311407275, 4.82165471787,FR
8436,TAILLETTE,8230,49.9157903394, 4.51147538743,FR
8470,VERPEL,8240,49.4367865299, 4.95899557171,FR
8494,WADELINCOURT,8200,49.736070844, 4.95877999805,FR
9026,AUDRESSEIN,9800,42.8802373016, 0.976010210218,FR
9020,ARTIGUES,9460,42.7000204282, 2.06311416847,FR
9025,AUCAZEIN,9800,42.8802373016, 0.976010210218,FR
8499,WASIGNY,8270,49.6013662608, 4.45102282302,FR
9014,ARGEIN,9800,42.8802373016, 0.976010210218,FR
8489,VONCQ,8400,49.3759788124, 4.68476998487,FR
8493,VRIZY,8400,49.3759788124, 4.68476998487,FR
9009,ALZEN,9240,43.0066758951, 1.4205570849,FR
9092,CAZENAVE SERRES ET ALLENS,9400,42.8458484074, 1.57117119842,FR
9082,CASTELNAU DURBAN,9420,42.9874247202, 1.30308846281,FR
9078,CARCANIERES,9460,42.7000204282, 2.06311416847,FR
9106,DREUILHE,9300,42.8998630058, 1.82670565712,FR
9083,CASTERAS,9130,43.1552424381, 1.41559693567,FR
9094,CERIZOLS,9230,43.097912883, 1.14262799526,FR
9113,ERCE,9140,42.7992501708, 1.2327189582,FR
9221,ORNOLAC USSAT LES BAINS,9400,42.8458484074, 1.57117119842,FR
9204,MONTESQUIEU AVANTES,9200,42.9618731428, 1.1680404037,FR
9212,MONTSERON,9240,43.0066758951, 1.4205570849,FR
9195,MONESPLE,9130,43.1552424381, 1.41559693567,FR
9190,MERIGON,9230,43.097912883, 1.14262799526,FR
9203,MONTELS,9240,43.0066758951, 1.4205570849,FR
9192,MIGLOS,9400,42.8458484074, 1.57117119842,FR
9226,PECH,9310,42.7095817459, 1.66641931204,FR
9222,ORUS,9220,42.7223238727, 1.48359397931,FR
9077,CAPOULET ET JUNAC,9400,42.8458484074, 1.57117119842,FR
9035,BALAGUERES,9800,42.8802373016, 0.976010210218,FR
9027,AUGIREIN,9800,42.8802373016, 0.976010210218,FR
8461,VANDY,8400,49.3759788124, 4.68476998487,FR
9008,ALOS,9200,42.9618731428, 1.1680404037,FR
9085,CASTILLON EN COUSERANS,9800,42.8802373016, 0.976010210218,FR
9062,LES BORDES SUR LEZ,9800,42.8802373016, 0.976010210218,FR
9075,CAMPAGNE SUR ARIZE,9350,43.1379383387, 1.3126654208,FR
9066,BRASSAC,9000,42.9514815414, 1.58076108382,FR
9087,CAUSSOU,9250,42.7695518986, 1.76637760482,FR
9088,CAYCHAX,9250,42.7695518986, 1.76637760482,FR
9072,CALZAN,9120,43.0413486613, 1.62931324426,FR
9064,BOUAN,9310,42.7095817459, 1.66641931204,FR
10030,BARBEREY ST SULPICE,10600,48.3767482025, 3.98875459714,FR
10029,BALNOT SUR LAIGNES,10110,48.1160220302, 4.43093259336,FR
10028,BALNOT LA GRANGE,10210,48.0240420903, 4.12388886656,FR
10057,BOUY SUR ORVIN,10400,48.4799726716, 3.5156539842,FR
10027,BALIGNICOURT,10330,48.5139476266, 4.53465022681,FR
10041,BERTIGNOLLES,10110,48.1160220302, 4.43093259336,FR
10033,BAR SUR AUBE,10200,48.2425292795, 4.71148061919,FR
10052,BOULAGES,10380,48.576907135, 3.98044859766,FR
10070,CELLES SUR OURCE,10110,48.1160220302, 4.43093259336,FR
10062,BRIEL SUR BARSE,10140,48.2443606803, 4.48006737892,FR
10103,COLOMBE LE SEC,10200,48.2425292795, 4.71148061919,FR
10075,CHAMPFLEURY,10700,48.5834551294, 4.16090274297,FR
10094,CHAVANGES,10330,48.5139476266, 4.53465022681,FR
10061,BREVONNES,10220,48.3496514843, 4.3203044052,FR
10121,DAMPIERRE,10240,48.495152966, 4.31805671159,FR
10097,CHERVEY,10110,48.1160220302, 4.43093259336,FR
9336,VILLENEUVE D OLMES,9300,42.8998630058, 1.82670565712,FR
10026,BAILLY LE FRANC,10330,48.5139476266, 4.53465022681,FR
9342,STE SUZANNE,9130,43.1552424381, 1.41559693567,FR
9332,VERNIOLLE,9340,43.0813978691, 1.66183877783,FR
10015,AUBETERRE,10150,48.3962803897, 4.13703511392,FR
9327,VENTENAC,9120,43.0413486613, 1.62931324426,FR
10008,ARGANCON,10140,48.2443606803, 4.48006737892,FR
9325,VAYCHIS,9110,42.687868237, 1.86458335672,FR
9328,VERDUN,9310,42.7095817459, 1.66641931204,FR
9320,URS,9310,42.7095817459, 1.66641931204,FR
9259,ST FELIX DE TOURNEGAT,9500,43.0872280591, 1.85370925426,FR
9209,MONTJOIE EN COUSERANS,9200,42.9618731428, 1.1680404037,FR
9258,ST FELIX DE RIEUTORD,9120,43.0413486613, 1.62931324426,FR
9235,PRAT BONREPAUX,9160,43.0402483269, 1.04449509042,FR
9207,MONTGAILLARD,9330,42.9375288696, 1.64328854462,FR
9256,ST BAUZEIL,9120,43.0413486613, 1.62931324426,FR
9238,LES PUJOLS,9100,43.1247584786, 1.6039578252,FR
9244,RIEUCROS,9500,43.0872280591, 1.85370925426,FR
9254,ST AMADOU,9100,43.1247584786, 1.6039578252,FR
9255,ST AMANS,9100,43.1247584786, 1.6039578252,FR
9145,LES ISSARDS,9100,43.1247584786, 1.6039578252,FR
9141,ILLARTEIN,9800,42.8802373016, 0.976010210218,FR
9102,COUTENS,9500,43.0872280591, 1.85370925426,FR
9132,GAUDIES,9700,43.2096334802, 1.59552646997,FR
9116,ESCOSSE,9100,43.1247584786, 1.6039578252,FR
9149,LACOURT,9200,42.9618731428, 1.1680404037,FR
9117,ESPLAS,9700,43.2096334802, 1.59552646997,FR
9093,CELLES,9000,42.9514815414, 1.58076108382,FR
9142,ILHAT,9300,42.8998630058, 1.82670565712,FR
9107,DUN,9600,42.9966813157, 1.86782868426,FR
10218,MAISONS LES CHAOURCE,10210,48.0240420903, 4.12388886656,FR
10234,MESGRIGNY,10170,48.4916267047, 3.93350100384,FR
10228,MATHAUX,10500,48.4013286019, 4.53410660747,FR
9269,ST MARTIN DE CARALP,9000,42.9514815414, 1.58076108382,FR
9274,ST QUENTIN LA TOUR,9500,43.0872280591, 1.85370925426,FR
9312,LA TOUR DU CRIEU,9100,43.1247584786, 1.6039578252,FR
9317,UCHENTEIN,9800,42.8802373016, 0.976010210218,FR
9268,ST LIZIER,9190,43.0227616635, 1.12327682273,FR
9303,SURBA,9400,42.8458484074, 1.57117119842,FR
9305,TABRE,9600,42.9966813157, 1.86782868426,FR
9318,UNAC,9250,42.7695518986, 1.76637760482,FR
9297,SOR,9800,42.8802373016, 0.976010210218,FR
9202,MONTEGUT PLANTAUREL,9120,43.0413486613, 1.62931324426,FR
9206,MONTFERRIER,9300,42.8998630058, 1.82670565712,FR
9178,MALEGOUDE,9500,43.0872280591, 1.85370925426,FR
9168,LIEURAC,9300,42.8998630058, 1.82670565712,FR
9152,LAPEGE,9400,42.8458484074, 1.57117119842,FR
9151,LANOUX,9130,43.1552424381, 1.41559693567,FR
9155,LARCAT,9310,42.7095817459, 1.66641931204,FR
9182,MASSAT,9320,42.8796957466, 1.34694172937,FR
9161,LERAN,9600,42.9966813157, 1.86782868426,FR
9186,MERAS,9350,43.1379383387, 1.3126654208,FR
10204,LONGEVILLE SUR MOGNE,10320,48.1632184055, 4.02059815423,FR
10208,LA LOUPTIERE THENARD,10400,48.4799726716, 3.5156539842,FR
10203,LONGCHAMP SUR AUJON,10310,48.1567685845, 4.79470021531,FR
10186,LAINES AUX BOIS,10120,48.2420570868, 4.01115012406,FR
10216,MAILLY LE CAMP,10230,48.6745421809, 4.1855506569,FR
10215,MAGNY FOUCHARD,10140,48.2443606803, 4.48006737892,FR
10210,LUYERES,10150,48.3962803897, 4.13703511392,FR
10154,FONTENAY DE BOSSERY,10400,48.4799726716, 3.5156539842,FR
10146,FAY LES MARCILLY,10290,48.3522204669, 3.62637818754,FR
10145,FAUX VILLECERF,10290,48.3522204669, 3.62637818754,FR
10133,EAUX PUISEAUX,10130,48.0520003827, 3.93246550297,FR
10139,EPOTHEMONT,10500,48.4013286019, 4.53410660747,FR
10184,JUZANVIGNY,10500,48.4013286019, 4.53410660747,FR
10167,GRANDVILLE,10700,48.5834551294, 4.16090274297,FR
10168,LES GRANGES,10210,48.0240420903, 4.12388886656,FR
14177,COQUAINVILLIERS,14130,49.281975342, 0.22870196514,FR
14182,CORMOLAIN,14240,49.1055577852, -0.781481644045,FR
14184,COTTUN,14400,49.2815631038, -0.715433077365,FR
14193,COURTONNE LA MEURDRAC,14100,49.1310255033, 0.259106150918,FR
14200,CREULLY,14480,49.2805777127, -0.533333491955,FR
14203,CRICQUEVILLE EN AUGE,14430,49.2183532057, -0.0305664652154,FR
14206,CROCY,14620,48.9036116787, -0.0519512119893,FR
14209,CROUAY,14400,49.2815631038, -0.715433077365,FR
14212,CULLY,14480,49.2805777127, -0.533333491955,FR
14215,CUVERVILLE,14840,49.1829413019, -0.263699565464,FR
14217,DAMPIERRE,14350,48.9220153608, -0.733098585986,FR
14221,DEMOUVILLE,14840,49.1829413019, -0.263699565464,FR
14229,DOZULE,14430,49.2183532057, -0.0305664652154,FR
14239,ENGLESQUEVILLE LA PERCEE,14710,49.3170637907, -0.915262890017,FR
14240,EPANEY,14170,48.9808309881, -0.0400174122505,FR
14244,ERAINES,14700,48.8884175702, -0.214432827919,FR
14245,ERNES,14270,49.0749683297, -0.0575716776042,FR
14251,ESSON,14220,48.9913936572, -0.409929998013,FR
14254,ETERVILLE,14930,49.1299717664, -0.432158841819,FR
14261,LE FAULQ,14130,49.281975342, 0.22870196514,FR
14276,FONTAINE LE PIN,14190,49.0218805149, -0.23188447049,FR
14284,FOURNEAUX LE VAL,14700,48.8884175702, -0.214432827919,FR
14290,FRESNEY LE PUCEUX,14680,49.0558845153, -0.321596506267,FR
14291,FRESNEY LE VIEUX,14220,48.9913936572, -0.409929998013,FR
14296,LE GAST,14380,48.8544817922, -1.0273831979,FR
14301,GIBERVILLE,14730,49.1778233329, -0.286397043342,FR
14302,GLANVILLE,14950,49.2830960197, 0.0921245287823,FR
14309,GOUVIX,14680,49.0558845153, -0.321596506267,FR
14311,GRAINVILLE SUR ODON,14210,49.1001637748, -0.508327897598,FR
14339,HUBERT FOLIE,14540,49.1052988528, -0.282744263635,FR
14347,JURQUES,14260,49.0066968594, -0.682033937829,FR
14355,LANTHEUIL,14480,49.2805777127, -0.533333491955,FR
14362,LESSARD ET LE CHENE,14140,49.0354632921, 0.127071984738,FR
14372,LIVRY,14240,49.1055577852, -0.781481644045,FR
14375,LES LOGES SAULCES,14700,48.8884175702, -0.214432827919,FR
14378,LONGUEVILLE,14230,49.3176758888, -1.05497360925,FR
14385,MAGNY EN BESSIN,14400,49.2815631038, -0.715433077365,FR
14387,MAGNY LE FREULE,14270,49.0749683297, -0.0575716776042,FR
14394,MAIZIERES,14190,49.0218805149, -0.23188447049,FR
14398,MANERBE,14340,49.1715682628, 0.0767124030123,FR
14402,LE MARAIS LA CHAPELLE,14620,48.9036116787, -0.0519512119893,FR
14406,MARTRAGNY,14740,49.2134618013, -0.521360272238,FR
14410,MERY CORBON,14370,49.1190784398, -0.159512854419,FR
14411,MESLAY,14220,48.9913936572, -0.409929998013,FR
14412,LE MESNIL AU GRAIN,14260,49.0066968594, -0.682033937829,FR
14417,MESNIL CLINCHAMPS,14380,48.8544817922, -1.0273831979,FR
14425,LE MESNIL SIMON,14140,49.0354632921, 0.127071984738,FR
14435,LES MONCEAUX,14100,49.1310255033, 0.259106150918,FR
14439,MONFREVILLE,14230,49.3176758888, -1.05497360925,FR
14453,MOSLES,14400,49.2815631038, -0.715433077365,FR
14455,MOULINES,14220,48.9913936572, -0.409929998013,FR
14456,MOULT,14370,49.1190784398, -0.159512854419,FR
14465,NONANT,14400,49.2815631038, -0.715433077365,FR
14468,NORON LA POTERIE,14490,49.1880103756, -0.822491149883,FR
14475,NOYERS MISSY,14210,49.1001637748, -0.508327897598,FR
14496,PERIGNY,14770,48.9262068, -0.631065513494,FR
14511,PONT BELLANGER,14380,48.8544817922, -1.0273831979,FR
14514,PONT L EVEQUE,14130,49.281975342, 0.22870196514,FR
14520,LE PRE D AUGE,14340,49.1715682628, 0.0767124030123,FR
14530,RANVILLE,14860,49.2320742988, -0.215810077728,FR
14533,REPENTIGNY,14340,49.1715682628, 0.0767124030123,FR
14534,REUX,14130,49.281975342, 0.22870196514,FR
14544,ROUCAMPS,14260,49.0066968594, -0.682033937829,FR
14548,RUCQUEVILLE,14480,49.2805777127, -0.533333491955,FR
14551,RUSSY,14710,49.3170637907, -0.915262890017,FR
14556,ST ANDRE SUR ORNE,14320,49.1013108668, -0.374113026429,FR
14566,ST CONTEST,14280,49.2095685958, -0.412342557701,FR
14572,ST DENIS DE MERE,14110,48.8603879133, -0.538857121596,FR
14577,ST GABRIEL BRECY,14480,49.2805777127, -0.533333491955,FR
14591,STE HONORINE DES PERTES,14520,49.3400701436, -0.771788294928,FR
14595,ST JEAN DE LIVET,14100,49.1310255033, 0.259106150918,FR
14597,ST JEAN LE BLANC,14770,48.9262068, -0.631065513494,FR
14603,ST LAURENT DE CONDEL,14220,48.9913936572, -0.409929998013,FR
14616,STE MARGUERITE DE VIETTE,14140,49.0354632921, 0.127071984738,FR
14620,ST MARTIN AUX CHARTRAINS,14130,49.281975342, 0.22870196514,FR
14621,ST MARTIN DE BIENFAITE LA CRESSONNIERE,14290,49.0265084607, 0.343255889354,FR
14627,ST MARTIN DE MIEUX,14700,48.8884175702, -0.214432827919,FR
14649,ST PIERRE DU BU,14700,48.8884175702, -0.214432827919,FR
14656,ST REMY,14570,48.9153171843, -0.506427417582,FR
8344,PREZ,8290,49.7819854475, 4.29783858253,FR
8459,TREMBLOIS LES CARIGNAN,8110,49.6541821872, 5.19219003172,FR
8443,TERRON SUR AISNE,8400,49.3759788124, 4.68476998487,FR
8452,THUGNY TRUGNY,8300,49.4890710736, 4.33770775217,FR
8430,STONNE,8390,49.5311407275, 4.82165471787,FR
8437,TAILLY,8240,49.4367865299, 4.95899557171,FR
8448,THILAY,8800,49.898909719, 4.79046954849,FR
8450,THIS,8090,49.7814512769, 4.65888775481,FR
8434,SY,8390,49.5311407275, 4.82165471787,FR
10003,AIX VILLEMAUR PALIS,10160,48.1889637587, 3.74338839008,FR
9310,THOUARS SUR ARIZE,9350,43.1379383387, 1.3126654208,FR
9293,SERRES SUR ARGET,9000,42.9514815414, 1.58076108382,FR
9316,TROYE D ARIEGE,9500,43.0872280591, 1.85370925426,FR
9329,VERNAJOUL,9000,42.9514815414, 1.58076108382,FR
9330,VERNAUX,9250,42.7695518986, 1.76637760482,FR
9294,SIEURAS,9130,43.1552424381, 1.41559693567,FR
9295,SIGUER,9220,42.7223238727, 1.48359397931,FR
9301,SOULAN,9320,42.8796957466, 1.34694172937,FR
8487,VIREUX WALLERAND,8320,50.0723012487, 4.74304215812,FR
8481,VILLERS SUR BAR,8350,49.6865527767, 4.88064716793,FR
8483,VILLE SUR LUMES,8440,49.7465336406, 4.81357930291,FR
8462,VAUX CHAMPAGNE,8130,49.4948997956, 4.58771124171,FR
8467,VAUX MONTREUIL,8270,49.6013662608, 4.45102282302,FR
8498,WARNECOURT,8090,49.7814512769, 4.65888775481,FR
9003,L AIGUILLON,9300,42.8998630058, 1.82670565712,FR
8500,WIGNICOURT,8270,49.6013662608, 4.45102282302,FR
8469,VENDRESSE,8160,49.6516847115, 4.77872166277,FR
9121,FERRIERES SUR ARIEGE,9000,42.9514815414, 1.58076108382,FR
9105,DAUMAZAN SUR ARIZE,9350,43.1379383387, 1.3126654208,FR
9108,DURBAN SUR ARIZE,9240,43.0066758951, 1.4205570849,FR
9103,CRAMPAGNA,9120,43.0413486613, 1.62931324426,FR
9124,LE FOSSAT,9130,43.1552424381, 1.41559693567,FR
9100,COUFLENS,9140,42.7992501708, 1.2327189582,FR
9119,EYCHEIL,9200,42.9618731428, 1.1680404037,FR
9104,DALOU,9120,43.0413486613, 1.62931324426,FR
9167,LEZAT SUR LEZE,9210,43.2658077144, 1.36518366912,FR
9169,LIMBRASSAC,9600,42.9966813157, 1.86782868426,FR
9198,MONTARDIT,9230,43.097912883, 1.14262799526,FR
9158,LASSERRE,9230,43.097912883, 1.14262799526,FR
9147,LABATUT,9700,43.2096334802, 1.59552646997,FR
9176,LUZENAC,9250,42.7695518986, 1.76637760482,FR
9179,MALLEON,9120,43.0413486613, 1.62931324426,FR
9134,GESTIES,9220,42.7223238727, 1.48359397931,FR
9185,MAZERES,9270,43.2305726862, 1.6788901115,FR
9130,GANAC,9000,42.9514815414, 1.58076108382,FR
9079,CARLA BAYLE,9130,43.1552424381, 1.41559693567,FR
9081,LE CARLARET,9100,43.1247584786, 1.6039578252,FR
9065,BOUSSENAC,9320,42.8796957466, 1.34694172937,FR
9097,CLERMONT,9420,42.9874247202, 1.30308846281,FR
9098,CONTRAZY,9230,43.097912883, 1.14262799526,FR
9047,BELESTA,9300,42.8998630058, 1.82670565712,FR
9091,CAZAVET,9160,43.0402483269, 1.04449509042,FR
9060,BONNAC,9100,43.1247584786, 1.6039578252,FR
9084,CASTEX,9350,43.1379383387, 1.3126654208,FR
9074,CAMON,9500,43.0872280591, 1.85370925426,FR
9201,MONTEGUT EN COUSERANS,9200,42.9618731428, 1.1680404037,FR
9211,MONTSEGUR,9300,42.8998630058, 1.82670565712,FR
9208,MONTGAUCH,9160,43.0402483269, 1.04449509042,FR
9233,PRADETTES,9600,42.9966813157, 1.86782868426,FR
9237,LE PUCH,9460,42.7000204282, 2.06311416847,FR
9230,LE PLA,9460,42.7000204282, 2.06311416847,FR
9214,MOULIS,9200,42.9618731428, 1.1680404037,FR
9216,NESCUS,9240,43.0066758951, 1.4205570849,FR
9218,ORGEIX,9110,42.687868237, 1.86458335672,FR
9217,NIAUX,9400,42.8458484074, 1.57117119842,FR
10126,DOLANCOURT,10200,48.2425292795, 4.71148061919,FR
10120,CUSSANGY,10210,48.0240420903, 4.12388886656,FR
10119,CUNFIN,10360,48.0604806131, 4.60332287539,FR
45237,ORVILLE,45390,48.1960479378, 2.43683004462,FR
45238,OUSSON SUR LOIRE,45250,47.6666483755, 2.7989341243,FR
45243,OUZOUER SOUS BELLEGARDE,45270,47.9909280993, 2.48335113975,FR
45245,OUZOUER SUR TREZEE,45250,47.6666483755, 2.7989341243,FR
45252,PITHIVIERS,45300,48.1872746027, 2.25373917421,FR
45260,RAMOULU,45300,48.1872746027, 2.25373917421,FR
45273,ST DENIS DE L HOTEL,45550,47.8830814884, 2.1536101469,FR
45274,ST DENIS EN VAL,45560,47.8809759841, 1.97258529438,FR
45282,ST HILAIRE ST MESMIN,45160,47.8140032252, 1.87690042129,FR
45284,ST JEAN DE BRAYE,45800,47.9164571685, 1.97410766394,FR
45294,ST MICHEL,45340,48.0647487968, 2.39617529456,FR
45296,ST PERAVY LA COLOMBE,45310,48.0141699593, 1.6696840611,FR
45297,ST PERE SUR LOIRE,45600,47.7248279742, 2.37123638142,FR
45298,ST PRYVE ST MESMIN,45750,47.8799809099, 1.85399682798,FR
45301,SANTEAU,45170,48.0809443986, 2.05747366676,FR
45302,SARAN,45770,47.9497637523, 1.87835179014,FR
45303,SCEAUX DU GATINAIS,45490,48.0833050669, 2.60106881052,FR
45311,SIGLOY,45110,47.8743242491, 2.26314688236,FR
45321,THIMORY,45260,47.8858062716, 2.51389256145,FR
45323,THOU,45420,47.6034837022, 2.88243398662,FR
45324,TIGY,45510,47.7639996935, 2.18590511935,FR
45328,TREILLES EN GATINAIS,45490,48.0833050669, 2.60106881052,FR
45335,VIENNE EN VAL,45510,47.7639996935, 2.18590511935,FR
45338,VILLEMANDEUR,45700,47.9535204862, 2.6968652899,FR
45344,VILLORCEAU,45190,47.8004436022, 1.60034648518,FR
79089,LE CHILLOU,79600,46.8218182102, -0.136529587594,FR
79092,CLAVE,79420,46.554353559, -0.175702505371,FR
79102,COULONGES THOUARSAIS,79330,46.8866910448, -0.280997718978,FR
79104,COURS,79220,46.4780154702, -0.409601333646,FR
79121,FOMPERRON,79340,46.5341457633, -0.0690786598996,FR
79130,FRONTENAY ROHAN ROHAN,79270,46.2587527131, -0.557533948895,FR
79132,GENNETON,79150,47.0026122608, -0.46748094088,FR
79133,GERMOND ROUVRE,79220,46.4780154702, -0.409601333646,FR
79136,GOURNAY LOIZE,79110,46.0796792551, -0.0776262361776,FR
79140,HANC,79110,46.0796792551, -0.0776262361776,FR
79144,JUSCORPS,79230,46.2556160002, -0.365723799708,FR
79158,LUCHE SUR BRIOUX,79170,46.1222201678, -0.263662394431,FR
79167,MARNES,79600,46.8218182102, -0.136529587594,FR
79168,MASSAIS,79150,47.0026122608, -0.46748094088,FR
79184,LA MOTHE ST HERAY,79800,46.3757530547, -0.0927719850216,FR
79201,PAMPROUX,79800,46.3757530547, -0.0927719850216,FR
79203,PAS DE JEU,79100,46.9728352964, -0.169886662398,FR
79207,LA PETITE BOISSIERE,79700,46.9364849279, -0.753058283039,FR
79208,LA PEYRATTE,79200,46.6764128938, -0.220232536654,FR
79210,LE PIN,79140,46.8536328396, -0.662287760231,FR
79211,PIOUSSAY,79110,46.0796792551, -0.0776262361776,FR
79219,PRIAIRES,79210,46.2343123422, -0.655631681594,FR
79230,ROM,79120,46.2813998001, 0.0312023029637,FR
79236,ST ANDRE SUR SEVRE,79380,46.7639583246, -0.657227871413,FR
79242,VOULMENTIN,79150,47.0026122608, -0.46748094088,FR
79249,ST GELAIS,79410,46.3956786662, -0.424997632045,FR
79250,STE GEMME,79330,46.8866910448, -0.280997718978,FR
79252,ST GENEROUX,79600,46.8218182102, -0.136529587594,FR
79256,ST GERMIER,79340,46.5341457633, -0.0690786598996,FR
79265,ST LEGER DE MONTBRUN,79100,46.9728352964, -0.169886662398,FR
79268,ST LOUP LAMAIRE,79600,46.8218182102, -0.136529587594,FR
79279,ST MARTIN LES MELLE,79500,46.2096053952, -0.119503446916,FR
79281,ST MAXIRE,79410,46.3956786662, -0.424997632045,FR
79284,STE OUENNE,79220,46.4780154702, -0.409601333646,FR
79289,ST PIERRE DES ECHAUBROGNES,79700,46.9364849279, -0.753058283039,FR
79292,STE RADEGONDE,79100,46.9728352964, -0.169886662398,FR
79302,SAIVRES,79400,46.4367634451, -0.226400465767,FR
79311,SECONDIGNY,79130,46.6158684946, -0.425275653202,FR
79312,SELIGNE,79170,46.1222201678, -0.263662394431,FR
79316,SOUDAN,79800,46.3757530547, -0.0927719850216,FR
79322,LE TALLUD,79200,46.6764128938, -0.220232536654,FR
79329,THOUARS,79100,46.9728352964, -0.169886662398,FR
79331,TOURTENAY,79100,46.9728352964, -0.169886662398,FR
79336,VANCAIS,79120,46.2813998001, 0.0312023029637,FR
79348,VILLEFOLLET,79170,46.1222201678, -0.263662394431,FR
79352,VILLIERS SUR CHIZE,79170,46.1222201678, -0.263662394431,FR
80017,ALLAINES,80200,49.9092274559, 2.93799194086,FR
80018,ALLENAY,80130,50.0912781795, 1.52364516053,FR
80030,ARRY,80120,50.3005450298, 1.68432499024,FR
80039,AULT,80460,50.0980567949, 1.47472776699,FR
80049,AYENCOURT,80500,49.6644065445, 2.59300207796,FR
80050,BACOUEL SUR SELLE,80480,49.853757974, 2.22704649661,FR
80051,BAILLEUL,80490,50.003393471, 1.8509393607,FR
80058,BAYONVILLERS,80170,49.8050137743, 2.68380397389,FR
80060,BEALCOURT,80370,50.1625147057, 2.13483617177,FR
80065,BEAUCOURT SUR L ANCRE,80300,50.0227028619, 2.66061917471,FR
80073,BECORDEL BECOURT,80300,50.0227028619, 2.66061917471,FR
80076,BEHEN,80870,50.0653042148, 1.7446378135,FR
80095,BERTRANCOURT,80560,50.0734291376, 2.51202338922,FR
80097,BETHENCOURT SUR SOMME,80190,49.7735190405, 2.91598423819,FR
80098,BETTEMBOS,80290,49.7720118421, 1.95186211928,FR
80102,BIACHES,80200,49.9092274559, 2.93799194086,FR
80105,BILLANCOURT,80190,49.7735190405, 2.91598423819,FR
80115,BOUCHAVESNES BERGEN,80200,49.9092274559, 2.93799194086,FR
80119,BOUGAINVILLE,80540,49.872686231, 2.06894684401,FR
80120,BOUILLANCOURT EN SERY,80220,49.991665642, 1.59571342525,FR
80122,BOUQUEMAISON,80600,50.1635098178, 2.34121033549,FR
80123,BOURDON,80310,49.9552776258, 2.09743129246,FR
80125,BOUSSICOURT,80500,49.6644065445, 2.59300207796,FR
80128,BOUVINCOURT EN VERMANDOIS,80200,49.9092274559, 2.93799194086,FR
80135,BRAY LES MAREUIL,80580,50.0580760392, 1.88626484435,FR
80137,BREILLY,80470,49.9236427909, 2.20416854235,FR
80146,BRUTELLES,80230,50.1558301634, 1.61596449442,FR
80147,BUIGNY L ABBE,80132,50.1190953901, 1.81386374692,FR
80153,BUS LES ARTOIS,80560,50.0734291376, 2.51202338922,FR
80157,BUSSY LES POIX,80290,49.7720118421, 1.95186211928,FR
80162,CAIX,80170,49.8050137743, 2.68380397389,FR
80164,CAMON,80450,49.8997826029, 2.37137484278,FR
80167,CANCHY,80150,50.2392104009, 1.91827271095,FR
80172,CAPPY,80340,49.919452036, 2.73393733727,FR
80175,CARNOY,80300,50.0227028619, 2.66061917471,FR
80186,CHAULNES,80320,49.8236869472, 2.82486732688,FR
80201,COIGNEUX,80560,50.0734291376, 2.51202338922,FR
80203,COLINCAMPS,80560,50.0734291376, 2.51202338922,FR
80213,COTTENCHY,80440,49.8341850031, 2.39954269272,FR
80220,COURTEMANCHE,80500,49.6644065445, 2.59300207796,FR
80225,CREUSE,80480,49.853757974, 2.22704649661,FR
80229,CROUY ST PIERRE,80310,49.9552776258, 2.09743129246,FR
80243,DOMESMONT,80370,50.1625147057, 2.13483617177,FR
80259,DROMESNIL,80640,49.8459420737, 1.9103382201,FR
80262,EAUCOURT SUR SOMME,80580,50.0580760392, 1.88626484435,FR
80283,ESCLAINVILLERS,80250,49.7189012018, 2.37293677974,FR
9050,BENAGUES,9100,43.1247584786, 1.6039578252,FR
9073,CAMARADE,9290,43.0688947964, 1.3366340035,FR
9053,BESTIAC,9250,42.7695518986, 1.76637760482,FR
9068,BURRET,9000,42.9514815414, 1.58076108382,FR
9049,BENAC,9000,42.9514815414, 1.58076108382,FR
9057,BIERT,9320,42.8796957466, 1.34694172937,FR
9067,BRIE,9700,43.2096334802, 1.59552646997,FR
9118,ESPLAS DE SEROU,9420,42.9874247202, 1.30308846281,FR
9126,FREYCHENET,9300,42.8998630058, 1.82670565712,FR
9115,ESCLAGNE,9600,42.9966813157, 1.86782868426,FR
9136,GOURBIT,9400,42.8458484074, 1.57117119842,FR
9153,LAPENNE,9500,43.0872280591, 1.85370925426,FR
9131,GARANOU,9250,42.7695518986, 1.76637760482,FR
9148,LACAVE,9160,43.0402483269, 1.04449509042,FR
9159,LASSUR,9310,42.7095817459, 1.66641931204,FR
9140,IGNAUX,9110,42.687868237, 1.86458335672,FR
9181,LE MAS D AZIL,9290,43.0688947964, 1.3366340035,FR
9163,LESCOUSSE,9100,43.1247584786, 1.6039578252,FR
9166,LEYCHERT,9300,42.8998630058, 1.82670565712,FR
9187,MERCENAC,9160,43.0402483269, 1.04449509042,FR
9164,LESCURE,9420,42.9874247202, 1.30308846281,FR
9173,LOUBENS,9120,43.0413486613, 1.62931324426,FR
9177,MADIERE,9100,43.1247584786, 1.6039578252,FR
9170,LISSAC,9700,43.2096334802, 1.59552646997,FR
9180,MANSES,9500,43.0872280591, 1.85370925426,FR
9175,LUDIES,9100,43.1247584786, 1.6039578252,FR
9245,RIEUX DE PELLEPORT,9120,43.0413486613, 1.62931324426,FR
9251,ROUMENGOUX,9500,43.0872280591, 1.85370925426,FR
9247,RIVERENERT,9200,42.9618731428, 1.1680404037,FR
9229,LE PEYRAT,9600,42.9966813157, 1.86782868426,FR
9236,PRAYOLS,9000,42.9514815414, 1.58076108382,FR
9232,PRADES,9110,42.687868237, 1.86458335672,FR
9252,ROUZE,9460,42.7000204282, 2.06311416847,FR
9240,QUIE,9400,42.8458484074, 1.57117119842,FR
9306,TARASCON SUR ARIEGE,9400,42.8458484074, 1.57117119842,FR
9291,SENTENAC D OUST,9140,42.7992501708, 1.2327189582,FR
9302,SUC ET SENTENAC,9220,42.7223238727, 1.48359397931,FR
9290,SENTEIN,9800,42.8802373016, 0.976010210218,FR
9298,SORGEAT,9110,42.687868237, 1.86458335672,FR
9296,SINSAT,9310,42.7095817459, 1.66641931204,FR
9300,SOULA,9000,42.9514815414, 1.58076108382,FR
9285,SEIX,9140,42.7992501708, 1.2327189582,FR
45235,ORMES,45140,47.9387970361, 1.79888602843,FR
45244,OUZOUER SUR LOIRE,45570,47.7713399136, 2.51487040381,FR
45247,PANNES,45700,47.9535204862, 2.6968652899,FR
45250,PERS EN GATINAIS,45210,48.0887848026, 2.86578598407,FR
45259,QUIERS SUR BEZONDE,45270,47.9909280993, 2.48335113975,FR
45267,ST AIGNAN DES GUES,45460,47.835810766, 2.38912953908,FR
45271,ST BRISSON SUR LOIRE,45500,47.669813444, 2.62052294278,FR
45275,ST FIRMIN DES BOIS,45220,47.9445707894, 2.94063509683,FR
45280,ST GONDON,45500,47.669813444, 2.62052294278,FR
45288,ST LOUP DES VIGNES,45340,48.0647487968, 2.39617529456,FR
45292,ST MAURICE SUR AVEYRON,45230,47.8080760606, 2.86273192034,FR
45293,ST MAURICE SUR FESSARD,45700,47.9535204862, 2.6968652899,FR
45299,ST SIGISMOND,45310,48.0141699593, 1.6696840611,FR
45300,SANDILLON,45640,47.8367007411, 2.03001021128,FR
45308,SEMOY,45400,47.9619656993, 1.95515679115,FR
45315,SULLY SUR LOIRE,45600,47.7248279742, 2.37123638142,FR
45320,THIGNONVILLE,45300,48.1872746027, 2.25373917421,FR
45322,THORAILLES,45210,48.0887848026, 2.86578598407,FR
45331,VANNES SUR COSSON,45510,47.7639996935, 2.18590511935,FR
45336,VIGLAIN,45600,47.7248279742, 2.37123638142,FR
45340,VILLEMURLIN,45600,47.7248279742, 2.37123638142,FR
45345,VIMORY,45700,47.9535204862, 2.6968652899,FR
46005,ANGLARS JUILLAC,46140,44.4587405582, 1.2656539493,FR
46007,ARCAMBAL,46090,44.4541569045, 1.46509252908,FR
46008,LES ARQUES,46250,44.6154509921, 1.19691401291,FR
46009,ASSIER,46320,44.6447012942, 1.81435342065,FR
46022,BELAYE,46140,44.4587405582, 1.2656539493,FR
46030,BIO,46500,44.7803374405, 1.69650074579,FR
46031,BLARS,46330,44.503969424, 1.67446493402,FR
46032,BOISSIERES,46150,44.5548817391, 1.32888523161,FR
46047,CALES,46350,44.8071332775, 1.48114774786,FR
46049,CALVIGNAC,46160,44.5163420235, 1.82953577079,FR
46053,CAMBURAT,46100,44.6196578758, 1.99907921588,FR
46068,CENEVIERES,46330,44.503969424, 1.67446493402,FR
46073,CONCOTS,46260,44.3818501086, 1.77024800045,FR
46077,COURS,46090,44.4541569045, 1.46509252908,FR
46083,CRESSENSAC,46600,44.9553915789, 1.56930926768,FR
46087,DEGAGNAC,46340,44.6657598644, 1.30345191373,FR
46091,ESCAMPS,46230,44.3311926222, 1.57367645875,FR
46092,ESCLAUZELS,46090,44.4541569045, 1.46509252908,FR
46094,ESPEDAILLAC,46320,44.6447012942, 1.81435342065,FR
46096,ESPEYROUX,46120,44.7466376911, 1.91531197179,FR
46098,FAJOLES,46300,44.7441887507, 1.41110343039,FR
46102,FIGEAC,46100,44.6196578758, 1.99907921588,FR
46103,ST PAUL FLAUGNAC,46170,44.2978599733, 1.37150326445,FR
46116,FRONTENAC,46160,44.5163420235, 1.82953577079,FR
46117,GAGNAC SUR CERE,46130,44.9082108731, 1.84936992994,FR
46124,GLANES,46130,44.9082108731, 1.84936992994,FR
46129,GREALOU,46160,44.5163420235, 1.82953577079,FR
46131,GREZES,46320,44.6447012942, 1.81435342065,FR
46139,LABATHUDE,46120,44.7466376911, 1.91531197179,FR
46155,LARNAGOL,46160,44.5163420235, 1.82953577079,FR
46158,LASCABANES,46800,44.3585211768, 1.21527135512,FR
46160,LATRONQUIERE,46210,44.7778876008, 2.08086087379,FR
46162,LAUZES,46360,44.5788373248, 1.59698113973,FR
10150,FONTAINE,10200,48.2425292795, 4.71148061919,FR
10165,GERAUDOT,10220,48.3496514843, 4.3203044052,FR
10251,MONTIGNY LES MONTS,10130,48.0520003827, 3.93246550297,FR
10239,MESNIL SELLIERES,10220,48.3496514843, 4.3203044052,FR
10243,MOLINS SUR AUBE,10500,48.4013286019, 4.53410660747,FR
10238,MESNIL ST PERE,10140,48.2443606803, 4.48006737892,FR
10236,MESNIL LETTRE,10240,48.495152966, 4.31805671159,FR
10256,MONTSUZAIN,10150,48.3962803897, 4.13703511392,FR
10260,MOUSSEY,10800,48.2055801821, 4.1125140322,FR
10263,NEUVILLE SUR VANNE,10190,48.249510935, 3.83670117751,FR
10303,PRECY NOTRE DAME,10500,48.4013286019, 4.53410660747,FR
10267,NOGENT SUR AUBE,10240,48.495152966, 4.31805671159,FR
10298,PONT SUR SEINE,10400,48.4799726716, 3.5156539842,FR
10293,POIVRES,10700,48.5834551294, 4.16090274297,FR
10290,PLANTY,10160,48.1889637587, 3.74338839008,FR
10307,PRUGNY,10190,48.249510935, 3.83670117751,FR
10269,NOZAY,10700,48.5834551294, 4.16090274297,FR
10287,PINEY,10220,48.3496514843, 4.3203044052,FR
10337,ST CHRISTOPHE DODINICOURT,10500,48.4013286019, 4.53410660747,FR
10351,ST MARTIN DE BOSSENAY,10100,48.4790813047, 3.69122724058,FR
10350,ST MARDS EN OTHE,10160,48.1889637587, 3.74338839008,FR
10328,ROUILLY SACEY,10220,48.3496514843, 4.3203044052,FR
10312,RACINES,10130,48.0520003827, 3.93246550297,FR
58278,SERMOISE SUR LOIRE,58000,46.9644333624, 3.17459118159,FR
58289,TERNANT,58250,46.8026569095, 3.7623321984,FR
58295,TRACY SUR LOIRE,58150,47.3141169585, 3.01884186422,FR
59002,ABSCON,59215,50.3278360338, 3.2977204551,FR
59028,AUBY,59950,50.4143759518, 3.06120580228,FR
59029,AUCHY LEZ ORCHIES,59310,50.4756550668, 3.24690119502,FR
59042,BACHY,59830,50.5603924878, 3.23305636879,FR
59044,BAISIEUX,59780,50.6106542416, 3.2436665711,FR
59051,LA BASSEE,59480,50.5558128425, 2.82300533087,FR
59052,BAUVIN,59221,50.5162330076, 2.89300264366,FR
59055,BAZUEL,59360,50.0869230183, 3.58161803685,FR
59057,BEAUDIGNIES,59530,50.223224015, 3.68515855463,FR
59065,BELLIGNIES,59570,50.3076854397, 3.80843098031,FR
59067,BERGUES,59380,50.9638309272, 2.43403587067,FR
59068,BERLAIMONT,59145,50.1990593503, 3.79431721305,FR
59071,BERSEE,59235,50.4806857231, 3.15123020584,FR
59072,BERSILLIES,59600,50.3120023096, 3.98953050481,FR
59073,BERTHEN,59270,50.744872534, 2.69409590473,FR
59074,BERTRY,59980,50.0845778116, 3.46500822238,FR
59077,BETTRECHIES,59570,50.3076854397, 3.80843098031,FR
59083,BISSEZEELE,59380,50.9638309272, 2.43403587067,FR
59084,BLARINGHEM,59173,50.7167343875, 2.40817332289,FR
59086,BOESCHEPE,59299,50.7990963037, 2.69841501665,FR
59089,BOLLEZEELE,59470,50.8771639883, 2.42740619864,FR
59091,BORRE,59190,50.716080125, 2.53498842642,FR
59092,BOUCHAIN,59111,50.2733776483, 3.31798741017,FR
59094,BOURBOURG,59630,50.9241353596, 2.23327395744,FR
59098,BOUSBECQUE,59166,50.7638173156, 3.07490254619,FR
59101,BOUSIGNIES SUR ROC,59149,50.2443056992, 4.15095520104,FR
59103,BOUSSIERES SUR SAMBRE,59330,50.2276174189, 3.92870278259,FR
59104,BOUSSOIS,59168,50.2946104674, 4.04736259113,FR
59105,BOUVIGNIES,59870,50.4111764156, 3.27356961496,FR
59115,BRUNEMONT,59151,50.2865158745, 3.11140042003,FR
59116,BRY,59144,50.2906575579, 3.68467219435,FR
59119,BUYSSCHEURE,59285,50.8315857512, 2.37917573107,FR
59120,CAESTRE,59190,50.716080125, 2.53498842642,FR
59126,CANTIN,59169,50.3188008385, 3.12364772716,FR
59134,CARTIGNIES,59244,50.0896425348, 3.83023391682,FR
59135,CASSEL,59670,50.8083185635, 2.46483503328,FR
59139,CAUDRY,59540,50.1250979725, 3.43223199835,FR
59140,CAULLERY,59191,50.1001907619, 3.36864533682,FR
59168,CYSOING,59830,50.5603924878, 3.23305636879,FR
59170,DECHY,59187,50.3496628506, 3.1300601478,FR
59175,DIMONT,59216,50.1687463201, 4.01936516486,FR
59178,DOUAI,59500,50.382032933, 3.09129729986,FR
59181,DOURLERS,59440,50.1317369611, 3.92319762263,FR
59182,DRINCHAM,59630,50.9241353596, 2.23327395744,FR
59188,ECUELIN,59620,50.1872040884, 3.853225186,FR
59197,ENNEVELIN,59710,50.5305991887, 3.10906639629,FR
59204,ESCARMAIN,59213,50.2475337981, 3.52978047064,FR
59206,ESCAUDOEUVRES,59161,50.1987116728, 3.28713967931,FR
59209,ESNES,59127,50.0669008118, 3.33260202285,FR
59212,ESTAIRES,59940,50.6663981785, 2.70159427049,FR
59213,ESTOURMEL,59400,50.1533767412, 3.19681716574,FR
59216,ESWARS,59161,50.1987116728, 3.28713967931,FR
59218,ETROEUNGT,59219,50.0518032549, 3.92131798693,FR
59220,FACHES THUMESNIL,59155,50.5939825721, 3.07223990633,FR
59229,FERON,59610,50.0219945971, 4.04376753743,FR
59239,FLINES LEZ RACHES,59148,50.4169084896, 3.18216827762,FR
59246,FOREST EN CAMBRESIS,59222,50.1472445748, 3.59180512772,FR
59251,FRASNOY,59530,50.223224015, 3.68515855463,FR
59252,FRELINGHIEN,59236,50.7028060979, 2.95097432461,FR
59259,GHISSIGNIES,59530,50.223224015, 3.68515855463,FR
59261,GLAGEON,59132,50.0748231353, 4.13810260699,FR
59266,GONDECOURT,59147,50.5444177471, 2.98104516318,FR
59272,GRAND FORT PHILIPPE,59153,50.9992920802, 2.10130581284,FR
59273,GRAVELINES,59820,50.98845491, 2.14774710721,FR
59274,LA GROISE,59360,50.0869230183, 3.58161803685,FR
14657,ST SAMSON,14670,49.1818769935, -0.152819265624,FR
14672,SEPT VENTS,14240,49.1055577852, -0.781481644045,FR
14674,SOIGNOLLES,14190,49.0218805149, -0.23188447049,FR
14675,SOLIERS,14540,49.1052988528, -0.282744263635,FR
14677,SOULANGY,14700,48.8884175702, -0.214432827919,FR
14692,TILLY SUR SEULLES,14250,49.183022328, -0.634791853067,FR
14694,LE TORQUESNE,14130,49.281975342, 0.22870196514,FR
14701,TOURGEVILLE,14800,49.330164101, 0.0981767005903,FR
14706,TOURVILLE EN AUGE,14130,49.281975342, 0.22870196514,FR
14709,TRACY SUR MER,14117,49.3341466257, -0.646070140255,FR
14741,LE VEY,14570,48.9153171843, -0.506427417582,FR
14742,VICQUES,14170,48.9808309881, -0.0400174122505,FR
14748,VIEUX BOURG,14130,49.281975342, 0.22870196514,FR
14755,VILLERVILLE,14113,49.392904808, 0.128649857058,FR
14758,VILLONS LES BUISSONS,14610,49.2527836333, -0.426386244935,FR
14760,VILLY BOCAGE,14310,49.0707040622, -0.648769817397,FR
15001,ALLANCHE,15160,45.252065959, 2.92878213054,FR
15002,ALLEUZE,15100,45.0331283869, 3.1188217924,FR
15004,ANDELAT,15100,45.0331283869, 3.1188217924,FR
15008,ANTIGNAC,15240,45.3190218955, 2.49287425953,FR
15011,ARNAC,15150,44.9867545423, 2.19192867808,FR
15016,AYRENS,15250,44.9842780771, 2.39985714548,FR
15017,BADAILHAC,15800,44.9795584262, 2.65717036183,FR
15019,BASSIGNAC,15240,45.3190218955, 2.49287425953,FR
15028,CARLAT,15130,44.8791705563, 2.49073265119,FR
15035,CHALINARGUES,15170,45.1501301275, 3.01356620883,FR
15045,CHAUDES AIGUES,15110,44.8097655947, 2.98800839206,FR
15046,CHAUSSENAC,15700,45.1474212799, 2.26638957361,FR
15050,LE CLAUX,15400,45.2494220056, 2.64495164445,FR
15061,DIENNE,15300,45.1198274459, 2.83644430028,FR
15063,DRUGEAC,15140,45.1182699241, 2.47506456811,FR
15073,FRIDEFONT,15110,44.8097655947, 2.98800839206,FR
15081,JOU SOUS MONJOU,15800,44.9795584262, 2.65717036183,FR
15085,LABROUSSE,15130,44.8791705563, 2.49073265119,FR
15093,LAPEYRUGUE,15120,44.7320894244, 2.47797007542,FR
15098,LAURIE,15500,45.1978770192, 3.16534368935,FR
15112,MALBO,15230,44.9549425633, 2.81230207909,FR
15118,MARMANHAC,15250,44.9842780771, 2.39985714548,FR
15121,MAURINES,15110,44.8097655947, 2.98800839206,FR
15129,MONTBOUDIF,15190,45.3180974777, 2.79879193329,FR
15136,MOURJOU,15340,44.6960347495, 2.36319520573,FR
15138,MURAT,15300,45.1198274459, 2.83644430028,FR
15139,NARNHAC,15230,44.9549425633, 2.81230207909,FR
15147,PARLAN,15290,44.8596655037, 2.18395827378,FR
15151,PEYRUSSE,15170,45.1501301275, 3.01356620883,FR
15157,QUEZAC,15600,44.7318470612, 2.22537453682,FR
15168,RUYNES EN MARGERIDE,15320,44.9755512909, 3.25916489345,FR
15170,ST AMANDIN,15190,45.3180974777, 2.79879193329,FR
15175,ST CERNIN,15310,45.0470485491, 2.40091577072,FR
15187,ST FLOUR,15100,45.0331283869, 3.1188217924,FR
15190,ST HIPPOLYTE,15400,45.2494220056, 2.64495164445,FR
15191,ST ILLIDE,15310,45.0470485491, 2.40091577072,FR
15200,ST MARTIN CANTALES,15140,45.1182699241, 2.47506456811,FR
15202,ST MARTIN VALMEROUX,15140,45.1182699241, 2.47506456811,FR
15214,ST SAURY,15290,44.8596655037, 2.18395827378,FR
15215,ST SIMON,15130,44.8791705563, 2.49073265119,FR
15229,SOULAGES,15100,45.0331283869, 3.1188217924,FR
15237,TIVIERS,15100,45.0331283869, 3.1188217924,FR
15241,LA TRINITAT,15110,44.8097655947, 2.98800839206,FR
15250,VEBRET,15240,45.3190218955, 2.49287425953,FR
15251,VEDRINES ST LOUP,15100,45.0331283869, 3.1188217924,FR
15257,VEZELS ROUSSY,15130,44.8791705563, 2.49073265119,FR
15262,VILLEDIEU,15100,45.0331283869, 3.1188217924,FR
15267,YTRAC,15130,44.8791705563, 2.49073265119,FR
16001,ABZAC,16500,46.0339142008, 0.700300422302,FR
16003,AGRIS,16110,45.7400969845, 0.377716541879,FR
16008,AMBERAC,16140,45.909751558, 0.0012445152135,FR
16015,ANGOULEME,16000,45.6474756307, 0.145191503645,FR
16017,ANVILLE,16170,45.7890325838, -0.0524231030464,FR
16026,BALZAC,16430,45.7168170917, 0.172931779313,FR
16035,BEAULIEU SUR SONNETTE,16450,45.9168932329, 0.460927666406,FR
16044,BIOUSSAC,16700,46.0168761938, 0.246377896211,FR
16050,BONNEUIL,16120,45.5885415594, -0.0877285349114,FR
16051,BONNEVILLE,16170,45.7890325838, -0.0524231030464,FR
16052,BORS DE MONTMOREAU,16190,45.3950891717, 0.123283135588,FR
16053,BORS DE BAIGNES,16360,45.3787388898, -0.201226302053,FR
16062,BRIE SOUS BARBEZIEUX,16300,45.4825627066, -0.162479147759,FR
16067,BUNZAC,16110,45.7400969845, 0.377716541879,FR
16068,CELLEFROUIN,16260,45.8489084837, 0.405198517802,FR
16079,CHANTILLAC,16360,45.3787388898, -0.201226302053,FR
16085,CHASSENEUIL SUR BONNIEURE,16260,45.8489084837, 0.405198517802,FR
16087,CHASSIECQ,16350,46.0026796131, 0.417821103599,FR
16094,CHENOMMET,16460,45.9115644706, 0.269844042651,FR
16097,CHERVES RICHEMONT,16370,45.7599366195, -0.346092589002,FR
16100,CHIRAC,16150,45.8762096643, 0.725825447,FR
16101,CLAIX,16440,45.5763660352, 0.064435228401,FR
16104,CONDAC,16700,46.0168761938, 0.246377896211,FR
16109,COURBILLAC,16200,45.7157731046, -0.184252292746,FR
8210,HANNOGNE ST REMY,8220,49.6447010155, 4.20764091673,FR
46026,BELMONT STE FOI,46230,44.3311926222, 1.57367645875,FR
46027,BERGANTY,46090,44.4541569045, 1.46509252908,FR
46035,BOUSSAC,46100,44.6196578758, 1.99907921588,FR
46036,LE BOUYSSOU,46120,44.7466376911, 1.91531197179,FR
46037,BOUZIES,46330,44.503969424, 1.67446493402,FR
46045,CAJARC,46160,44.5163420235, 1.82953577079,FR
46046,CALAMANE,46150,44.5548817391, 1.32888523161,FR
46052,CAMBOULIT,46100,44.6196578758, 1.99907921588,FR
46059,CARLUCET,46500,44.7803374405, 1.69650074579,FR
46063,CASTELNAU MONTRATIER,46170,44.2978599733, 1.37150326445,FR
46066,CAZALS,46250,44.6154509921, 1.19691401291,FR
46067,CAZILLAC,46600,44.9553915789, 1.56930926768,FR
46074,CONDAT,46110,44.9555371471, 1.6903236129,FR
46075,CORN,46100,44.6196578758, 1.99907921588,FR
46076,CORNAC,46130,44.9082108731, 1.84936992994,FR
46078,COUZOU,46500,44.7803374405, 1.69650074579,FR
46085,CUZAC,46270,44.6473088307, 2.13298082635,FR
46090,DURBANS,46320,44.6447012942, 1.81435342065,FR
46101,FELZINS,46270,44.6473088307, 2.13298082635,FR
46113,FRAYSSINET,46310,44.6394802041, 1.42656797195,FR
46114,FRAYSSINET LE GELAT,46250,44.6154509921, 1.19691401291,FR
46121,GINOUILLAC,46300,44.7441887507, 1.41110343039,FR
46125,GORSES,46210,44.7778876008, 2.08086087379,FR
46126,GOUJOUNAC,46250,44.6154509921, 1.19691401291,FR
46134,LES JUNIES,46150,44.5548817391, 1.32888523161,FR
46142,LACAPELLE CABANAC,46700,44.4982429609, 1.08720546775,FR
46143,LACAPELLE MARIVAL,46120,44.7466376911, 1.91531197179,FR
46144,LACAVE,46200,44.8875694704, 1.50529381889,FR
46148,LALBENQUE,46230,44.3311926222, 1.57367645875,FR
46151,LAMOTHE CASSEL,46240,44.6554006937, 1.59713194799,FR
46154,LARAMIERE,46260,44.3818501086, 1.77024800045,FR
46157,LARROQUE TOIRAC,46160,44.5163420235, 1.82953577079,FR
46161,LAURESSES,46210,44.7778876008, 2.08086087379,FR
46163,LAVAL DE CERE,46130,44.9082108731, 1.84936992994,FR
46170,LEYME,46120,44.7466376911, 1.91531197179,FR
46174,LINAC,46270,44.6473088307, 2.13298082635,FR
46179,LUGAGNAC,46260,44.3818501086, 1.77024800045,FR
46184,MARMINIAC,46250,44.6154509921, 1.19691401291,FR
46204,MONTFAUCON,46240,44.6554006937, 1.59713194799,FR
46208,MONTVALENT,46600,44.9553915789, 1.56930926768,FR
46223,PONTCIRQ,46150,44.5548817391, 1.32888523161,FR
46226,PRENDEIGNES,46270,44.6473088307, 2.13298082635,FR
46231,PUY L EVEQUE,46700,44.4982429609, 1.08720546775,FR
46247,SAILLAC,46260,44.3818501086, 1.77024800045,FR
46253,ST CHAMARAND,46310,44.6394802041, 1.42656797195,FR
46258,ST CIRQ SOUILLAGUET,46300,44.7441887507, 1.41110343039,FR
46262,ST CYPRIEN,46800,44.3585211768, 1.21527135512,FR
46266,ST FELIX,46100,44.6196578758, 1.99907921588,FR
46278,ST MATRE,46800,44.3585211768, 1.21527135512,FR
46286,ST PAUL DE VERN,46400,44.8464393282, 1.9088704855,FR
46288,ST PERDOUX,46100,44.6196578758, 1.99907921588,FR
46296,ST VINCENT RIVE D OLT,46140,44.4587405582, 1.2656539493,FR
46313,TAURIAC,46130,44.9082108731, 1.84936992994,FR
46315,TEYSSIEU,46190,44.886802824, 2.02091707559,FR
46320,TOUR DE FAURE,46330,44.503969424, 1.67446493402,FR
46321,TOUZAC,46700,44.4982429609, 1.08720546775,FR
46323,USSEL,46240,44.6554006937, 1.59713194799,FR
46340,ST PIERRE LAFEUILLE,46090,44.4541569045, 1.46509252908,FR
47004,AIGUILLON,47190,44.302646925, 0.368757601165,FR
47006,ALLEZ ET CAZENEUVE,47110,44.383733234, 0.585627133864,FR
47008,AMBRUS,47160,44.2891390598, 0.260143174442,FR
47013,ARGENTON,47250,44.4065628537, 0.0843609403433,FR
47019,BAJAMONT,47480,44.2442520518, 0.685511945238,FR
47021,BARBASTE,47230,44.1923170438, 0.280502881227,FR
47023,BEAUGAS,47290,44.5380811408, 0.604531975145,FR
47027,BIAS,47300,44.4077673219, 0.711996693355,FR
47037,BOURNEL,47210,44.6267516583, 0.738433104132,FR
47042,BRUGNAC,47260,44.4350547547, 0.456381629274,FR
47053,CASTELLA,47340,44.3000005392, 0.742705393945,FR
47054,CASTELMORON SUR LOT,47260,44.4350547547, 0.456381629274,FR
47056,CASTELNAU SUR GUPIE,47180,44.53392476, 0.0738446304303,FR
47059,CAUBON ST SAUVEUR,47120,44.6787040938, 0.232542665376,FR
47060,CAUDECOSTE,47220,44.0949043382, 0.692685242444,FR
47063,CAVARC,47330,44.6508577785, 0.592392772922,FR
47065,CLAIRAC,47320,44.3563868406, 0.403122345242,FR
47075,LA CROIX BLANCHE,47340,44.3000005392, 0.742705393945,FR
47109,GAVAUDUN,47150,44.530509168, 0.81820267706,FR
47113,GRAYSSAS,47270,44.1899408479, 0.817384486687,FR
47118,HAUTESVIGNES,47400,44.4196424813, 0.319074824961,FR
47120,JUSIX,47180,44.53392476, 0.0738446304303,FR
47128,LAFOX,47240,44.1950523774, 0.697905787009,FR
47133,LAMONTJOIE,47310,44.1399851082, 0.538495270953,FR
47140,LAUGNAC,47360,44.3072742203, 0.542096401156,FR
47141,LAUSSOU,47150,44.530509168, 0.81820267706,FR
47146,LEDAT,47300,44.4077673219, 0.711996693355,FR
47147,LEVIGNAC DE GUYENNE,47120,44.6787040938, 0.232542665376,FR
47148,LEYRITZ MONCASSIN,47700,44.2984772037, 0.076626543263,FR
47152,LOUGRATTE,47290,44.5380811408, 0.604531975145,FR
47154,LUSIGNAN PETIT,47360,44.3072742203, 0.542096401156,FR
47162,MASSOULES,47140,44.3849440918, 0.844250854266,FR
47165,MEILHAN SUR GARONNE,47180,44.53392476, 0.0738446304303,FR
47167,MEZIN,47170,44.0578455097, 0.199141887722,FR
47178,MONSEGUR,47150,44.530509168, 0.81820267706,FR
47182,MONTASTRUC,47380,44.4800576934, 0.508511955035,FR
47187,MONTETON,47120,44.6787040938, 0.232542665376,FR
47188,MONTIGNAC DE LAUZUN,47800,44.5994650169, 0.378392455175,FR
80284,ESMERY HALLON,80400,49.7518016598, 3.01868119038,FR
80287,ESTREBOEUF,80230,50.1558301634, 1.61596449442,FR
80307,FEUILLERES,80200,49.9092274559, 2.93799194086,FR
80311,FIGNIERES,80500,49.6644065445, 2.59300207796,FR
80312,FINS,80360,50.0172893295, 2.88209855948,FR
80313,FLAUCOURT,80200,49.9092274559, 2.93799194086,FR
80321,FOLLEVILLE,80250,49.7189012018, 2.37293677974,FR
80322,FONCHES FONCHETTE,80700,49.7015900422, 2.77539756139,FR
80326,FONTAINE SOUS MONTDIDIER,80500,49.6644065445, 2.59300207796,FR
80329,FORCEVILLE,80560,50.0734291376, 2.51202338922,FR
80331,FOREST L ABBAYE,80150,50.2392104009, 1.91827271095,FR
80338,FOUILLOY,80800,49.9016470659, 2.53555403839,FR
80339,FOUQUESCOURT,80170,49.8050137743, 2.68380397389,FR
80341,FOURDRINOY,80310,49.9552776258, 2.09743129246,FR
80343,FRAMICOURT,80140,49.9469630616, 1.753960976,FR
80359,FRESNOY LES ROYE,80700,49.7015900422, 2.77539756139,FR
80366,FRICOURT,80300,50.0227028619, 2.66061917471,FR
80369,FROHEN SUR AUTHIE,80370,50.1625147057, 2.13483617177,FR
80373,GAMACHES,80220,49.991665642, 1.59571342525,FR
80378,GINCHY,80360,50.0172893295, 2.88209855948,FR
80388,GREBAULT MESNIL,80140,49.9469630616, 1.753960976,FR
80389,GRECOURT,80400,49.7518016598, 3.01868119038,FR
80392,GROUCHES LUCHUEL,80600,50.1635098178, 2.34121033549,FR
80402,GUIZANCOURT,80290,49.7720118421, 1.95186211928,FR
80408,HALLOY LES PERNOIS,80670,50.0646181987, 2.22461051282,FR
80418,HARDECOURT AUX BOIS,80360,50.0172893295, 2.88209855948,FR
80423,HAVERNAS,80670,50.0646181987, 2.22461051282,FR
80431,HERISSART,80260,49.9960804891, 2.34345425854,FR
80432,HERLEVILLE,80340,49.919452036, 2.73393733727,FR
80438,HEUDICOURT,80122,50.0269720778, 3.08990357556,FR
80447,HYENCOURT LE GRAND,80320,49.8236869472, 2.82486732688,FR
80455,LACHAPELLE,80290,49.7720118421, 1.95186211928,FR
80463,LAMOTTE WARFUSEE,80800,49.9016470659, 2.53555403839,FR
80470,LEALVILLERS,80560,50.0734291376, 2.51202338922,FR
80477,LIGESCOURT,80150,50.2392104009, 1.91827271095,FR
80490,LONGUEVAL,80360,50.0172893295, 2.88209855948,FR
80494,LOUVRECHY,80250,49.7189012018, 2.37293677974,FR
80496,MACHIEL,80150,50.2392104009, 1.91827271095,FR
80501,MAISON PONTHIEU,80150,50.2392104009, 1.91827271095,FR
80507,MARCELCAVE,80800,49.9016470659, 2.53555403839,FR
80512,MAREUIL CAUBERT,80132,50.1190953901, 1.81386374692,FR
80514,MARIEUX,80560,50.0734291376, 2.51202338922,FR
80515,MARLERS,80290,49.7720118421, 1.95186211928,FR
80523,MEAULTE,80300,50.0227028619, 2.66061917471,FR
80530,MERICOURT L ABBE,80800,49.9016470659, 2.53555403839,FR
80533,MERS LES BAINS,80350,50.0708581708, 1.40527663021,FR
80535,LE MESGE,80310,49.9552776258, 2.09743129246,FR
80544,MEZEROLLES,80600,50.1635098178, 2.34121033549,FR
80549,MIRAUMONT,80300,50.0227028619, 2.66061917471,FR
80553,MOLLIENS AU BOIS,80260,49.9960804891, 2.34345425854,FR
80574,MOUFLERS,80690,50.0746749874, 2.01760786838,FR
80576,MOYENCOURT,80400,49.7518016598, 3.01868119038,FR
80577,MOYENCOURT LES POIX,80290,49.7720118421, 1.95186211928,FR
80579,MUILLE VILLETTE,80400,49.7518016598, 3.01868119038,FR
80585,NESLE,80190,49.7735190405, 2.91598423819,FR
80587,NESLETTE,80140,49.9469630616, 1.753960976,FR
80591,NEUVILLE AU BOIS,80140,49.9469630616, 1.753960976,FR
80596,NEUVILLETTE,80600,50.1635098178, 2.34121033549,FR
80609,ONEUX,80135,50.1341745997, 1.97573553766,FR
80613,OUST MAREST,80460,50.0980567949, 1.47472776699,FR
80615,OVILLERS LA BOISSELLE,80300,50.0227028619, 2.66061917471,FR
80616,PARGNY,80190,49.7735190405, 2.91598423819,FR
80618,PENDE,80230,50.1558301634, 1.61596449442,FR
80623,PIENNES ONVILLERS,80500,49.6644065445, 2.59300207796,FR
80628,LE PLESSIER ROZAINVILLERS,80110,49.7772381899, 2.50585913264,FR
80629,POEUILLY,80240,49.9564219189, 3.07370300991,FR
80634,PONT NOYELLES,80115,49.9397690617, 2.43129149377,FR
80643,PROUZEL,80160,49.7511512754, 2.16207996445,FR
80665,REGNIERE ECLUSE,80120,50.3005450298, 1.68432499024,FR
80669,RETHONVILLERS,80700,49.7015900422, 2.77539756139,FR
80671,RIBEAUCOURT,80620,50.0939221311, 2.1055965706,FR
80672,RIBEMONT SUR ANCRE,80800,49.9016470659, 2.53555403839,FR
80674,RIVERY,80136,49.9106398111, 2.33963434621,FR
80682,ROUVROY EN SANTERRE,80170,49.8050137743, 2.68380397389,FR
80688,RUE,80120,50.3005450298, 1.68432499024,FR
80694,SAILLY LE SEC,80800,49.9016470659, 2.53555403839,FR
80700,ST BLIMONT,80960,50.1207974447, 1.56516731632,FR
80708,ST MARD,80700,49.7015900422, 2.77539756139,FR
80709,ST MAULVIS,80140,49.9469630616, 1.753960976,FR
80711,ST OUEN,80610,50.0237604844, 2.12528172421,FR
80713,ST QUENTIN EN TOURMONT,80120,50.3005450298, 1.68432499024,FR
80719,STE SEGREE,80290,49.7720118421, 1.95186211928,FR
80734,SENTELIE,80160,49.7511512754, 2.16207996445,FR
80741,SOYECOURT,80200,49.9092274559, 2.93799194086,FR
80742,SURCAMPS,80620,50.0939221311, 2.1055965706,FR
80744,TAILLY,80270,49.948357214, 1.92858154161,FR
80751,THENNES,80110,49.7772381899, 2.50585913264,FR
80754,THIEULLOY L ABBAYE,80640,49.8459420737, 1.9103382201,FR
80761,TILLOY LES CONTY,80160,49.7511512754, 2.16207996445,FR
80769,TREUX,80300,50.0227028619, 2.66061917471,FR
80770,TULLY,80130,50.0912781795, 1.52364516053,FR
80774,VAIRE SOUS CORBIE,80800,49.9016470659, 2.53555403839,FR
80778,VAUCHELLES LES DOMART,80620,50.0939221311, 2.1055965706,FR
80779,VAUCHELLES LES QUESNOY,80132,50.1190953901, 1.81386374692,FR
46167,LENTILLAC DU CAUSSE,46330,44.503969424, 1.67446493402,FR
46171,LHERM,46150,44.5548817391, 1.32888523161,FR
46173,LIMOGNE EN QUERCY,46260,44.3818501086, 1.77024800045,FR
46181,LUNEGARDE,46240,44.6554006937, 1.59713194799,FR
46185,MARTEL,46600,44.9553915789, 1.56930926768,FR
46188,MAXOU,46090,44.4541569045, 1.46509252908,FR
46199,MONTCABRIER,46700,44.4982429609, 1.08720546775,FR
46202,MONTDOUMERC,46230,44.3311926222, 1.57367645875,FR
46206,MONTLAUZUN,46800,44.3585211768, 1.21527135512,FR
46207,MONTREDON,46270,44.6473088307, 2.13298082635,FR
46209,NADAILLAC DE ROUGE,46350,44.8071332775, 1.48114774786,FR
46216,PAYRIGNAC,46300,44.7441887507, 1.41110343039,FR
46217,PERN,46170,44.2978599733, 1.37150326445,FR
46219,PEYRILLES,46310,44.6394802041, 1.42656797195,FR
46224,PRADINES,46090,44.4541569045, 1.46509252908,FR
46227,PROMILHANES,46260,44.3818501086, 1.77024800045,FR
46229,PUYBRUN,46130,44.9082108731, 1.84936992994,FR
46236,REILHAGUET,46350,44.8071332775, 1.48114774786,FR
46239,LE ROC,46200,44.8875694704, 1.50529381889,FR
46241,ROUFFILHAC,46300,44.7441887507, 1.41110343039,FR
46243,RUEYRES,46120,44.7466376911, 1.91531197179,FR
46254,ST CHELS,46160,44.5163420235, 1.82953577079,FR
46255,ST CIRGUES,46210,44.7778876008, 2.08086087379,FR
46257,ST CIRQ MADELON,46300,44.7441887507, 1.41110343039,FR
46259,ST CLAIR,46300,44.7441887507, 1.41110343039,FR
46268,ST GERY,46330,44.503969424, 1.67446493402,FR
46271,ST JEAN LESPINASSE,46400,44.8464393282, 1.9088704855,FR
46276,ST MARTIN LABOUVAL,46330,44.503969424, 1.67446493402,FR
46280,ST MEDARD,46150,44.5548817391, 1.32888523161,FR
46282,ST MEDARD NICOURBY,46210,44.7778876008, 2.08086087379,FR
46285,ST PANTALEON,46800,44.3585211768, 1.21527135512,FR
46290,ST PROJET,46300,44.7441887507, 1.41110343039,FR
46292,ST SIMON,46320,44.6447012942, 1.81435342065,FR
46294,ST SULPICE,46160,44.5163420235, 1.82953577079,FR
46297,SALVIAC,46340,44.6657598644, 1.30345191373,FR
46302,SENAILLAC LATRONQUIERE,46210,44.7778876008, 2.08086087379,FR
46304,SENIERGUES,46240,44.6554006937, 1.59713194799,FR
46305,SERIGNAC,46700,44.4982429609, 1.08720546775,FR
46309,SOUILLAC,46200,44.8875694704, 1.50529381889,FR
46310,SOULOMES,46240,44.6554006937, 1.59713194799,FR
46312,STRENQUELS,46110,44.9555371471, 1.6903236129,FR
46319,THEMINETTES,46120,44.7466376911, 1.91531197179,FR
46328,VARAIRE,46260,44.3818501086, 1.77024800045,FR
46331,VERS,46090,44.4541569045, 1.46509252908,FR
46332,VIAZAC,46100,44.6196578758, 1.99907921588,FR
46334,LE VIGAN,46300,44.7441887507, 1.41110343039,FR
46336,VIRE SUR LOT,46700,44.4982429609, 1.08720546775,FR
46337,MAYRAC,46200,44.8875694704, 1.50529381889,FR
46338,BESSONIES,46210,44.7778876008, 2.08086087379,FR
46339,ST JEAN LAGINESTE,46400,44.8464393282, 1.9088704855,FR
47002,AGME,47350,44.5399074197, 0.305282987207,FR
47007,ALLONS,47420,44.190114172, 0.0302523935969,FR
47010,ANTAGNAC,47700,44.2984772037, 0.076626543263,FR
47015,ASTAFFORT,47220,44.0949043382, 0.692685242444,FR
47020,BALEYSSAGUES,47120,44.6787040938, 0.232542665376,FR
47026,BEAUZIAC,47700,44.2984772037, 0.076626543263,FR
47030,BLAYMONT,47470,44.2689553649, 0.867525739201,FR
47034,BOUGLON,47250,44.4065628537, 0.0843609403433,FR
47045,CALIGNAC,47600,44.1055283712, 0.389815997319,FR
47052,CASTELJALOUX,47700,44.2984772037, 0.076626543263,FR
47055,CASTELNAUD DE GRATECAMBE,47290,44.5380811408, 0.604531975145,FR
47061,CAUMONT SUR GARONNE,47430,44.4038524558, 0.201607662579,FR
47062,CAUZAC,47470,44.2689553649, 0.867525739201,FR
47064,CAZIDEROQUE,47370,44.4072774794, 0.980770701463,FR
47070,CONDEZAYGUES,47500,44.5448210477, 0.973499530614,FR
47071,COULX,47260,44.4350547547, 0.456381629274,FR
47078,DAMAZAN,47160,44.2891390598, 0.260143174442,FR
47081,DOLMAYRAC,47110,44.383733234, 0.585627133864,FR
47085,DURANCE,47420,44.190114172, 0.0302523935969,FR
47087,ENGAYRAC,47470,44.2689553649, 0.867525739201,FR
47088,ESCASSEFORT,47350,44.5399074197, 0.305282987207,FR
47089,ESCLOTTES,47120,44.6787040938, 0.232542665376,FR
47090,ESPIENS,47600,44.1055283712, 0.389815997319,FR
47096,FERRENSAC,47330,44.6508577785, 0.592392772922,FR
47100,FOULAYRONNES,47510,44.2540583421, 0.637133747867,FR
47101,FOURQUES SUR GARONNE,47200,44.4962199558, 0.173898451147,FR
47102,FRANCESCAS,47600,44.1055283712, 0.389815997319,FR
47104,FREGIMONT,47360,44.3072742203, 0.542096401156,FR
47108,GAUJAC,47200,44.4962199558, 0.173898451147,FR
47114,GREZET CAVAGNAN,47250,44.4065628537, 0.0843609403433,FR
47123,LACAPELLE BIRON,47150,44.530509168, 0.81820267706,FR
47124,LACAUSSADE,47150,44.530509168, 0.81820267706,FR
47125,LACEPEDE,47360,44.3072742203, 0.542096401156,FR
47127,LAFITTE SUR LOT,47320,44.3563868406, 0.403122345242,FR
47129,LAGARRIGUE,47190,44.302646925, 0.368757601165,FR
47131,LAGUPIE,47180,44.53392476, 0.0738446304303,FR
47132,LALANDUSSE,47330,44.6508577785, 0.592392772922,FR
47134,LANNES,47170,44.0578455097, 0.199141887722,FR
47136,LAPERCHE,47800,44.5994650169, 0.378392455175,FR
47138,LAROQUE TIMBAUT,47340,44.3000005392, 0.742705393945,FR
47157,MARMANDE,47200,44.4962199558, 0.173898451147,FR
47158,MARMONT PACHAS,47220,44.0949043382, 0.692685242444,FR
47172,MONCAUT,47310,44.1399851082, 0.538495270953,FR
47174,MONCRABEAU,47600,44.1055283712, 0.389815997319,FR
47176,MONGAILLARD,47230,44.1923170438, 0.280502881227,FR
47177,MONHEURT,47160,44.2891390598, 0.260143174442,FR
47184,MONTAUT,47210,44.6267516583, 0.738433104132,FR
47198,PAILLOLES,47440,44.4570555688, 0.630745271337,FR
59281,HANTAY,59496,50.5368972316, 2.84563657471,FR
59282,HARDIFORT,59670,50.8083185635, 2.46483503328,FR
59283,HARGNIES,59138,50.2338166677, 3.85860343752,FR
59292,HAVELUY,59255,50.3532590231, 3.40316064365,FR
59293,HAVERSKERQUE,59660,50.6440201212, 2.61424433004,FR
59299,HEM,59510,50.6531377734, 3.19228219738,FR
59301,HERGNIES,59199,50.4740272864, 3.52059057701,FR
59310,HON HERGIES,59570,50.3076854397, 3.80843098031,FR
59313,HORDAIN,59111,50.2733776483, 3.31798741017,FR
59316,HOUPLIN ANCOISNE,59263,50.5700456203, 2.99396418059,FR
59317,HOUPLINES,59116,50.683583177, 2.92666181317,FR
59321,INCHY,59540,50.1250979725, 3.43223199835,FR
59324,JEUMONT,59460,50.2913684518, 4.10406647856,FR
59328,LAMBERSART,59130,50.6519499889, 3.02477528313,FR
59336,LECLUSE,59259,50.2769991269, 3.03143607671,FR
59337,LEDERZEELE,59143,50.8266931368, 2.25619459073,FR
59339,LEERS,59115,50.68149228, 3.23920791897,FR
59352,LINSELLES,59126,50.7357056476, 3.07372039494,FR
59360,LOOS,59120,50.6086965938, 3.02028654276,FR
59368,LA MADELEINE,59110,50.6547630947, 3.06953793949,FR
59369,MAING,59233,50.3038379836, 3.48904199641,FR
59370,MAIRIEUX,59600,50.3120023096, 3.98953050481,FR
59382,MARETZ,59238,50.0450304412, 3.42048694378,FR
59403,MILLONFOSSE,59178,50.4208694129, 3.3753580668,FR
59407,MONCHAUX SUR ECAILLON,59224,50.2929263496, 3.44612493476,FR
59409,MONCHECOURT,59234,50.2968410353, 3.19491530905,FR
59415,MONTRECOURT,59227,50.2500185431, 3.45009234347,FR
59419,MOUCHIN,59310,50.4756550668, 3.24690119502,FR
59421,MOUVAUX,59420,50.7041627546, 3.13760207242,FR
59425,NEUVILLE EN AVESNOIS,59218,50.188036681, 3.59383349158,FR
59430,NEUVILLY,59360,50.0869230183, 3.58161803685,FR
59437,NOYELLES LES SECLIN,59139,50.5828466691, 3.03623136309,FR
59454,OXELAERE,59670,50.8083185635, 2.46483503328,FR
59458,PERONNE EN MELANTOIS,59273,50.5659829271, 3.1352270312,FR
59497,RENESCURE,59173,50.7167343875, 2.40817332289,FR
59498,REUMONT,59980,50.0845778116, 3.46500822238,FR
59507,RONCHIN,59790,50.6048705857, 3.09209894113,FR
59512,ROUBAIX,59100,50.6882121889, 3.18169732773,FR
59521,SAILLY LEZ CAMBRAI,59554,50.1997132829, 3.19825969693,FR
59523,SAINGHIN EN MELANTOIS,59262,50.5877483285, 3.16330494676,FR
59527,ST ANDRE LEZ LILLE,59350,50.6605716565, 3.0470462263,FR
59528,ST AUBERT,59188,50.2124042637, 3.41180746227,FR
59529,ST AUBIN,59440,50.1317369611, 3.92319762263,FR
59530,ST AYBERT,59163,50.4613685751, 3.61604638041,FR
59548,ST WAAST,59570,50.3076854397, 3.80843098031,FR
59555,SARS POTERIES,59216,50.1687463201, 4.01936516486,FR
59563,SEMOUSIES,59440,50.1317369611, 3.92319762263,FR
59565,SEPMERIES,59269,50.2865936592, 3.53807571429,FR
59571,SOLESMES,59730,50.1806606643, 3.51245734771,FR
59577,STAPLE,59190,50.716080125, 2.53498842642,FR
59585,TEMPLEMARS,59175,50.5711630173, 3.06780468809,FR
59595,THUN ST MARTIN,59141,50.2278844933, 3.31468451895,FR
59602,TRESSIN,59152,50.6050937717, 3.2043944478,FR
59603,TRITH ST LEGER,59125,50.3306016516, 3.48702757261,FR
59604,TROISVILLES,59980,50.0845778116, 3.46500822238,FR
59608,VENDEGIES SUR ECAILLON,59213,50.2475337981, 3.52978047064,FR
59610,VERCHAIN MAUGRE,59227,50.2500185431, 3.45009234347,FR
59615,VIEUX BERQUIN,59232,50.6936253004, 2.62004483657,FR
59616,VIEUX CONDE,59690,50.4733555541, 3.56593655083,FR
59620,VILLERS AU TERTRE,59234,50.2968410353, 3.19491530905,FR
59625,VILLERS PLOUICH,59231,50.065671657, 3.13135649355,FR
59627,VILLERS SIRE NICOLE,59600,50.3120023096, 3.98953050481,FR
59633,WALLERS EN FAGNE,59132,50.0748231353, 4.13810260699,FR
59655,WEMAERS CAPPEL,59670,50.8083185635, 2.46483503328,FR
59657,WEST CAPPEL,59380,50.9638309272, 2.43403587067,FR
59662,WINNEZEELE,59670,50.8083185635, 2.46483503328,FR
59665,WYLDER,59380,50.9638309272, 2.43403587067,FR
59666,ZEGERSCAPPEL,59470,50.8771639883, 2.42740619864,FR
59667,ZERMEZEELE,59670,50.8083185635, 2.46483503328,FR
